,cost,address,bedrooms,bathrooms,hydro,heat,water,parking,pet,size,furnished,ac,smoking,has_den,has_unitType_Apartment,has_unitType_Basement,has_unitType_Condo,has_unitType_Duplex/Triplex,has_unitType_House,has_unitType_Townhouse,has_wifiInfo_Internet,has_wifiInfo_Cable,agreement_is_annual,has_appliances_Dishwasher,has_appliances_Fridge / Freezer,has_appliances_Laundry (In Building),has_appliances_Laundry (In Unit),has_amenities_24 Hour Security,has_amenities_Bicycle Parking,has_amenities_Concierge,has_amenities_Elevator in Building,has_amenities_Gym,has_amenities_Pool,has_amenities_Storage Space,has_outdoor_Balcony,has_outdoor_Yard,latitude,longitude
0,933,"22-41 Munroe Pl., Regina, SK, S4S 6A7",2,1.0,0,1,1,1,1,860,0,1,1,0,1,0,0,0,0,0,0,1,1,0,1,1,0,1,0,0,0,0,0,1,1,0,50.4143164,-104.6015627
1,850,"2175  Rae Street, Regina, SK, S4T 2E8",1,1.0,0,1,1,0,1,380,0,1,0,0,1,0,0,0,0,0,0,0,1,0,1,1,0,0,0,0,0,0,0,0,0,0,50.444161449999996,-104.6206538
2,799,"1424 Victoria Ave, Regina, SK, S4P 0P3",1,1.0,0,1,1,0,1,520,0,0,0,0,1,0,0,0,0,0,0,0,1,0,1,0,0,0,0,0,0,0,0,0,0,0,50.4474552,-104.6015730253819
3,814,"3864 Rae Street, Regina, SK, S4S 3A1",1,1.0,0,1,1,0,1,675,0,0,0,0,1,0,0,0,0,0,0,0,1,0,1,0,0,0,0,0,0,0,0,0,0,0,50.417431300000004,-104.62138427527586
4,1030,"2240 Robinson Street, Regina, SK, S4T 2P9",2,1.0,0,1,1,0,1,870,0,1,0,0,1,0,0,0,0,0,0,0,1,0,1,1,0,0,0,0,0,0,0,0,0,0,50.44325025,-104.62445604999999
5,1495,"S4X, Canada",1,1.0,1,1,1,1,0,625,1,1,0,0,1,0,0,0,0,0,0,1,0,0,1,0,1,1,0,0,0,0,0,0,1,1,50.5068,-104.6740
6,1199,"#109  5301 Universal Crescent, S4W0L2, Regina, SK",1,1.0,0,1,1,1,0,786,0,1,0,1,0,0,1,0,0,0,0,0,1,1,1,0,1,0,0,0,1,1,0,1,1,0,50.404604,-104.655852
7,1460,"5500 Parliament Avenue, Regina, SK, S4W 0T3",2,2.0,0,1,1,0,1,997,0,1,0,0,1,0,0,0,0,0,0,0,1,0,1,0,0,0,0,0,1,1,0,0,1,0,50.4182517,-104.6603951
8,799,"1424 Victoria Ave, Regina, SK, S4P 0P3",1,1.0,0,1,1,0,1,520,0,0,0,0,1,0,0,0,0,0,0,0,1,0,1,0,0,0,0,0,0,0,0,0,0,0,50.4474552,-104.6015730253819
9,849,"3525 Avonhurst Dr, Regina, SK, S4R 3K2",2,1.0,0,1,1,0,1,763,0,0,0,0,1,0,0,0,0,0,0,0,1,0,1,1,0,0,0,0,0,0,0,0,0,1,50.4707985,-104.6182456
10,999,"2835 Parliament Ave, Regina, SK, S4S 2L1",2,1.0,0,1,1,0,1,910,0,0,0,0,1,0,0,0,0,0,0,0,1,0,1,0,0,0,0,0,0,0,0,0,0,0,50.4151363,-104.6221331
11,799,"3940 Retallack Street, Regina, SK, S4S 3B9",1,1.0,0,1,1,0,1,675,0,0,0,0,1,0,0,0,0,0,0,0,1,0,1,0,0,0,0,0,0,0,0,0,0,0,50.4163001,-104.6228324
12,1074,"4100 Retallack Street, Regina, SK, S4S 3C3",2,1.0,0,1,1,0,1,720,0,0,0,0,1,0,0,0,0,0,0,0,1,0,1,0,0,0,0,0,0,0,0,0,0,0,50.41365395,-104.62285226699895
13,800,"2353 Ottawa St, Regina, SK S4P 1R2, Canada",1,1.0,0,1,1,2,0,700,0,0,0,0,1,0,0,0,0,0,0,0,1,0,1,1,0,0,0,0,0,0,0,0,0,0,50.4414175,-104.6002424234305
14,1475,"1942 Elphinstone St., S4T 3N2, Regina, SK",2,1.0,0,0,0,2,0,1000,0,0,0,0,0,0,0,0,1,0,0,0,1,1,1,0,1,0,0,0,0,0,0,0,0,1,50.447967899999995,-104.63148052606837
15,800,"144 1st Ave north, S3N 1J8, Yorkton, SK",1,1.0,0,1,1,1,0,900,0,0,0,0,1,0,0,0,0,0,0,0,0,0,1,1,0,0,0,0,0,0,0,0,0,0,51.215512,-102.462856
16,1279,"193 Lockwood Rd., Regina, SK, S4S 6G9",1,1.0,1,1,1,0,1,705,0,1,1,0,1,0,0,0,0,0,0,1,1,0,1,1,0,1,0,0,0,0,0,0,1,0,50.401505400000005,-104.62601904510908
17,754,"4039 Retallack Street, Regina, SK, S4S 3C2",1,1.0,0,1,1,0,1,480,0,0,0,0,1,0,0,0,0,0,0,0,1,0,1,0,0,0,0,0,0,0,0,0,0,0,50.41420275,-104.62208777550259
18,850,", Regina S4t3s2 SK, Canada",2,1.0,0,0,0,0,0,900,0,0,0,0,0,0,0,0,1,0,0,0,1,0,1,0,0,0,0,0,0,0,0,0,0,1,50.483860050000004,-104.56455595
19,1180,"10 Michener Drive, Regina, SK, S4V 1R2",2,1.0,0,1,1,0,1,975,0,1,0,0,1,0,0,0,0,0,0,0,1,1,1,0,1,0,0,0,0,1,0,0,1,0,50.432116449999995,-104.55925502789117
20,1085,"6725 Rochdale Blvd, Regina, SK, S4X 2Z2",2,1.0,0,1,1,0,1,798,0,1,0,0,1,0,0,0,0,0,0,0,1,1,1,0,1,0,0,0,0,1,0,0,0,0,50.4952793,-104.6868619
21,1487,"3005  Trombley St, Regina, SK, S4V 3W6",3,2.0,0,0,0,0,1,1074,0,1,0,0,1,0,0,0,0,0,1,0,1,1,1,1,1,0,0,0,0,0,0,0,1,1,50.4303224,-104.5138082
22,940,"5659 Campling Avenue, Regina, SK, S4W 0P8",1,1.0,0,0,0,0,1,576,0,1,0,0,1,0,0,0,0,0,0,0,1,1,1,0,1,0,0,0,0,0,0,0,0,1,50.4093068,-104.6588148
23,1250,"5663 Mitchinson Way, Regina, SK, S4W 0P9",3,1.0,0,0,0,0,1,1000,0,1,0,0,1,0,0,0,0,0,0,0,1,1,1,0,1,0,0,0,0,0,0,0,0,1,50.4108374,-104.6588214
24,1465,"3367 Green Poppy Street, Regina, SK, S4W 0G3",2,1.0,0,0,0,1,1,807,0,1,0,0,0,0,0,0,0,1,0,0,1,1,1,0,1,0,0,0,0,0,0,0,1,0,50.4255301,-104.5066269
25,1295,"5300 Parliament Ave, Regina, SK, S4W 0R5",2,1.0,0,0,1,1,1,694,0,1,0,0,1,0,0,0,0,0,0,0,1,1,1,0,1,0,0,0,1,1,0,0,1,0,50.4153721,-104.6092651
26,800,"405 Moltke Ave, Langenburg, SK S0A 2A0, Canada",1,1.0,1,1,1,2,0,768,1,1,0,0,0,1,0,0,0,0,0,0,0,1,1,1,0,0,0,0,0,0,0,0,0,1,50.8442359,-101.6991626
27,2200,"2300 Broad Street, S4P1Y8, Regina, SK",2,2.0,0,1,1,1,0,1400,0,1,0,1,0,0,1,0,0,0,0,0,1,1,1,0,1,1,1,0,1,1,0,1,1,0,50.4301772,-104.6035014
28,1020,"445  Retallack Street, Regina, SK, S4R 3N4",2,1.0,0,1,1,0,1,1000,0,1,0,0,1,0,0,0,0,0,0,0,1,0,1,1,0,0,0,0,0,0,0,0,0,0,50.4771602,-104.6225169
29,950,"2630  6th Avenue N, Regina, SK, S4R 0P2",1,1.0,0,1,1,0,1,631,0,1,0,0,1,0,0,0,0,0,0,0,1,0,1,1,0,0,0,0,0,0,0,0,1,0,50.47914995,-104.61998785
30,900,"2311 Park Street, S4N 2G9, Regina, SK",1,1.0,1,1,1,1,1,500,1,0,0,0,0,1,0,0,0,0,1,0,1,1,1,1,0,0,0,0,0,0,0,0,0,1,50.4421922,-104.57185854046834
31,620,"15  Darlington St. E, Yorkton, SK, S3N 0C1",1,1.0,0,1,1,0,1,290,0,0,0,0,1,0,0,0,0,0,0,0,1,0,1,1,0,0,0,0,0,0,0,0,0,1,51.2163743,-102.4572246
32,849,"3525 Avonhurst Dr, Regina, SK, S4R 3K2",2,1.0,0,1,1,0,1,763,0,0,0,0,1,0,0,0,0,0,0,0,1,0,1,1,0,0,0,0,0,0,0,0,0,1,50.4707985,-104.6182456
33,799,"1424 Victoria Ave, Regina, SK, S4P 0P3",1,1.0,0,1,1,0,1,520,0,0,0,0,1,0,0,0,0,0,0,0,1,0,1,0,0,0,0,0,0,0,0,0,0,0,50.4474552,-104.6015730253819
34,1295,"5501 Prefontaine Ave, Regina, SK, S4W 0S3",2,1.0,0,1,1,0,1,840,0,1,0,0,1,0,0,0,0,0,0,0,1,1,1,0,1,0,0,0,1,1,0,0,1,0,50.4125124,-104.6602563
35,1750,"14 Milford Crescent, Regina, SK S4N 1K7, Canada",3,2.0,0,0,0,3,1,1300,0,1,0,1,0,0,0,0,1,0,0,0,1,1,1,1,1,0,0,0,0,0,0,0,1,1,50.45371175,-104.55165125093453
36,1000,"69  Kleisinger Cres, Regina, SK, S4R 6Z4",2,1.0,0,1,1,0,1,761,0,1,0,0,1,0,0,0,0,0,0,0,1,0,1,1,0,0,0,0,0,0,0,0,1,0,50.48469695,-104.61002479999999
37,800,"399  Parkview Road, Yorkton, SK, S3N 2L4",2,1.0,0,1,1,0,1,743,0,0,0,0,0,0,0,0,1,0,0,0,1,0,1,1,0,0,0,0,0,0,0,0,1,0,51.201456,-102.4910259
38,650,"2901  5th Ave, Regina, SK, S4T 0L3",1,1.0,0,1,1,0,1,308,0,0,0,0,1,0,0,0,0,0,0,0,1,0,1,1,0,0,0,0,0,0,0,0,0,0,50.4612556,-104.62291479513875
39,850,"1454  Rae St, Regina, SK, S4T 2C5",2,1.0,0,1,1,0,1,684,0,1,0,0,1,0,0,0,0,0,0,0,1,0,1,1,0,0,0,0,0,0,0,0,1,0,50.45575635,-104.62143555014939
40,800,"1233 3rd St, Estevan, SK S4A 0R8, Canada",2,1.0,0,1,1,1,1,1000,0,0,0,1,0,0,0,0,0,1,0,0,1,0,0,1,0,0,0,0,0,0,0,0,0,1,49.1380657,-102.9914709
41,700,"173 Procter Pl, Regina, SK S4S 4G1, Canada",1,1.0,0,1,1,1,0,300,0,0,0,0,1,0,0,0,0,0,0,0,0,0,1,1,0,1,1,0,0,0,0,0,0,0,50.416049599999994,-104.61538370034538
42,1100,"67 Angus Rd, Regina, SK S4R 3L1, Canada",2,1.0,0,1,1,1,0,1140,0,1,0,0,1,0,0,0,0,0,0,0,0,1,1,1,0,1,0,0,1,0,0,1,1,0,50.48039905,-104.61993615
43,935,"505 Rose St, Regina, SK S4R 1Z4, Canada",2,1.0,0,1,1,1,0,800,0,1,0,0,1,0,0,0,0,0,0,0,0,0,1,1,0,0,0,0,0,0,0,0,1,0,50.4788692,-104.6079614
44,1295,"4665 Skinner Cres, Regina, SK S4W 0A3, Canada",1,1.0,0,0,0,1,0,800,1,1,0,1,1,0,0,0,0,0,0,0,1,0,0,0,1,0,0,0,0,0,0,0,0,1,50.4143021,-104.64507019114112
45,1050,"5310 Universal Cr., S4W 0K8, Regina, SK",2,1.0,0,0,0,1,0,1033,0,0,0,0,0,1,0,0,0,0,0,0,1,1,1,0,1,0,0,0,0,0,0,0,1,0,50.403828000000004,-104.65717211150788
46,1198,"1701 Horizons Way, Regina, SK, S4Y 0G5",2,2.0,0,0,1,1,1,913,0,1,0,0,1,0,0,0,0,0,0,0,1,1,1,0,1,0,0,0,1,1,0,0,1,0,50.455082,-104.7037566
47,1298,"1251 N Galloway Street, Regina, SK, S4X 0M6",2,1.0,0,1,1,1,1,859,0,1,0,0,1,0,0,0,0,0,0,0,1,1,1,0,1,0,0,0,1,0,0,0,1,0,50.4979735,-104.6282567
48,1600,"5500 Mitchinson Way, Regina, SK S4W 0N9, Canada",2,2.0,1,1,1,2,0,900,0,1,0,1,0,0,1,0,0,0,0,0,1,1,0,0,1,0,0,0,1,0,0,0,1,0,50.4112119,-104.65993949765225
49,1148,"41 Munroe Place, Regina, SK, S4S 6A7",2,1.0,0,1,1,0,1,850,0,1,1,0,1,0,0,0,0,0,0,1,1,0,1,0,1,1,0,0,0,0,0,1,1,1,50.4143164,-104.6015627
50,1022,"22-41 Munroe Pl., Regina, SK, S4S 6A7",2,1.0,0,1,1,0,1,860,0,0,1,0,1,0,0,0,0,0,0,1,1,0,1,1,0,1,0,0,0,0,0,1,1,0,50.4143164,-104.6015627
51,1268,"700 Gladmer Pk., Regina, SK, S4P 2W9",3,1.0,0,0,0,1,1,1056,0,0,1,0,0,0,0,0,0,1,0,1,1,1,1,0,1,0,0,0,0,0,0,0,1,1,50.435046,-104.603461
52,1800,"2 Donahue Ave, Regina, SK S4R 3Y5, Canada",3,1.0,1,1,1,2,0,1000,1,1,0,0,0,0,0,0,1,0,1,1,0,1,1,1,0,0,0,0,0,0,0,0,0,1,50.480819800000006,-104.63305390451347
53,1160,"3367 Green Poppy Street, Regina, SK, S4W 0G3",1,1.0,0,0,0,1,1,529,0,1,0,0,0,0,0,0,0,1,0,0,1,1,1,0,1,0,0,0,0,0,0,0,1,0,50.4255301,-104.5066269
54,1285,"3928 Green Falls Drive, Regina, SK, S4V 3M1",2,1.0,0,1,1,0,1,840,0,1,0,0,1,0,0,0,0,0,0,0,0,1,1,0,1,0,0,0,1,1,1,0,1,0,50.41547775,-104.5155892367307
55,1190,"5929 Rochdale Blvd, Regina, SK, S4X 0M3",2,1.0,0,0,1,0,1,691,0,1,0,0,1,0,0,0,0,0,0,0,1,1,1,0,1,0,0,0,1,0,0,0,1,0,50.4952793,-104.6868619
56,1190,"4013 Harbour Landing Dr, Regina, SK, S4W 0E5",2,1.0,0,0,1,0,1,691,0,1,0,0,1,0,0,0,0,0,0,0,1,1,1,0,1,0,0,0,1,1,1,0,1,0,50.4180892,-104.6487588
57,1240,"5601 Gordon Road, Regina, SK, S4W 0M6",1,1.0,0,0,1,0,1,780,0,1,0,0,1,0,0,0,0,0,0,0,1,1,1,0,1,0,0,0,1,0,0,0,1,0,50.4053187,-104.6631924
58,1119,"Centennial St, Regina, SK S4S 6W3, Canada",2,1.0,0,1,1,1,1,860,1,1,1,0,1,0,0,0,0,0,1,1,0,0,0,1,0,0,0,0,0,1,0,1,1,0,50.41392,-104.597823
59,990,"653 Donald St, Esterhazy, Saskatchewan,, Esterhazy S0A 0X0 SK",2,1.0,0,0,0,2,0,900,0,0,0,1,0,0,0,1,0,0,0,0,1,0,1,0,1,0,0,0,0,0,0,0,0,1,50.6568509,-102.0716893
60,1300,"1839 Scarth St, S4P 2G9, Regina, SK",1,1.0,1,1,1,1,1,900,1,1,0,0,1,0,0,0,0,0,1,1,0,1,1,0,1,0,0,0,0,0,0,0,0,0,50.4754868,-104.6108606
61,923,"405 Rae St, Regina, SK S4R 3M3, Canada",2,1.0,0,1,1,1,0,792,0,1,0,0,1,0,0,0,0,0,0,0,1,0,1,1,0,1,1,0,0,0,0,1,1,0,50.47203854999999,-104.62066300000001
62,955,"34 Spence Street, Regina, SK, S4S 4H4",1,1.0,0,1,1,0,1,675,0,1,0,0,1,0,0,0,0,0,0,0,1,0,1,1,0,0,0,0,0,0,0,0,1,0,50.41357105,-104.6158451935195
63,600,"355  Northview Rd, Yorkton, SK, S3N 2X6",1,1.0,0,1,1,0,1,362,0,1,0,0,1,0,0,0,0,0,0,0,1,0,1,1,0,0,0,0,0,0,0,0,1,0,51.202979,-102.4873541
64,700,"119 Broadway St W, Yorkton, SK S3N 0M3, Canada",1,1.0,0,0,1,1,1,350,0,0,0,0,1,0,0,0,0,0,0,0,1,0,1,0,1,0,0,0,0,0,0,0,0,1,51.210439199999996,-102.47049035372058
65,1060,"34 Spence Street, Regina, SK, S4S 4H4",2,1.0,0,1,1,0,1,800,0,1,0,0,1,0,0,0,0,0,0,0,1,0,1,1,0,0,0,0,0,0,0,0,1,0,50.41357105,-104.6158451935195
66,940,"331  Broad Street North, Regina, SK, S4R 2X8",1,1.0,0,1,1,0,1,659,0,1,0,0,1,0,0,0,0,0,0,0,1,0,1,1,0,0,0,0,0,0,0,0,1,0,50.4907451,-104.6061213
67,1285,"3928 Green Falls Drive, Regina, SK, S4V 3M1",2,1.0,0,1,1,0,1,840,0,1,0,0,1,0,0,0,0,0,0,0,0,1,1,0,1,0,0,0,1,1,1,0,1,0,50.41547775,-104.5155892367307
68,1295,"5501 Prefontaine Ave, Regina, SK, S4W 0S3",2,1.0,0,1,1,0,1,840,0,1,0,0,1,0,0,0,0,0,0,0,1,1,1,0,1,0,0,0,1,1,0,0,1,0,50.4125124,-104.6602563
69,1300,"331  Broad Street North, Regina, SK, S4R 2X8",2,2.0,0,1,1,0,1,832,0,1,0,0,1,0,0,0,0,0,0,0,1,0,1,1,0,0,0,0,0,0,0,0,1,0,50.4907451,-104.6061213
70,700,"119 Broadway St W, Yorkton, SK S3N 0M3, Canada",1,1.0,0,0,1,1,1,350,0,0,0,0,1,0,0,0,0,0,0,0,1,0,1,0,1,0,0,0,0,0,0,0,0,1,51.210439199999996,-102.47049035372058
71,700,"119 Broadway St W, Yorkton, SK S3N 0M3, Canada",1,1.0,0,0,1,1,1,350,0,0,0,0,1,0,0,0,0,0,0,0,1,0,1,0,1,0,0,0,0,0,0,0,0,1,51.210439199999996,-102.47049035372058
72,700,"119 Broadway St W, Yorkton, SK S3N 0M3, Canada",1,1.0,0,0,1,1,1,350,0,0,0,0,1,0,0,0,0,0,0,0,1,0,1,0,1,0,0,0,0,0,0,0,0,1,51.210439199999996,-102.47049035372058
73,700,"119 Broadway St W, Yorkton, SK S3N 0M3, Canada",1,1.0,0,0,1,1,1,350,0,0,0,0,1,0,0,0,0,0,0,0,1,0,1,0,1,0,0,0,0,0,0,0,0,1,51.210439199999996,-102.47049035372058
74,700,"119 Broadway St W, Yorkton, SK S3N 0M3, Canada",1,1.0,0,0,1,1,1,350,0,0,0,0,1,0,0,0,0,0,0,0,1,0,1,0,1,0,0,0,0,0,0,0,0,1,51.210439199999996,-102.47049035372058
75,920,"26 Lorne Place, Regina, SK, S4R 8B3",1,1.0,0,1,1,0,1,607,0,1,0,0,1,0,0,0,0,0,0,0,1,1,1,1,0,0,0,0,0,0,0,0,1,0,50.484867,-104.6137247
76,1045,"6725 Rochdale Blvd, Regina, SK, S4X 2Z2",1,1.0,0,1,1,0,1,583,0,1,0,0,1,0,0,0,0,0,0,0,1,1,1,0,1,0,0,0,0,1,0,0,0,0,50.4952793,-104.6868619
77,1200,", S0G 3Z0, Pilot Butte, SK",2,1.0,0,0,0,2,0,786,0,1,0,0,0,0,0,0,1,0,0,0,1,1,1,0,1,0,0,0,0,0,0,0,0,1,50.4785809,-104.4179622
78,950,"4462 Albulet Drive, S4W0L5, Regina, SK",1,1.0,1,1,1,1,0,700,0,0,0,0,0,1,0,0,0,0,1,0,1,1,1,0,1,0,0,0,0,0,0,0,0,0,50.4086579,-104.65717904928826
79,800,"S4T3M6, Canada",2,1.0,0,0,0,1,0,800,0,0,0,0,0,0,0,1,0,0,0,0,1,0,1,0,1,0,0,0,0,0,0,0,0,0,61.0666922,-107.991707
80,920,", Regina S4P 2M4 SK",1,1.0,0,1,1,0,0,555,0,0,0,0,0,0,1,0,0,0,0,0,1,1,1,1,1,0,0,0,0,0,0,0,1,0,50.4193012,-104.58222594380054
81,975,"125 Froom Crescent, Regina, SK S4N 1S8, Canada",2,1.0,0,1,1,1,1,800,0,1,0,0,1,0,0,0,0,0,0,0,0,0,1,1,0,0,0,0,0,0,0,0,0,0,50.44435695,-104.56520055045337
82,800,"204 Keeler St, Pangman, SK S0C 2C0, Canada",2,2.0,0,0,0,2,0,700,0,1,0,0,0,0,0,0,1,0,0,0,0,1,1,0,1,0,0,0,0,0,0,0,0,1,49.6456181,-104.6618481
83,849,"4050 Rae Street, Regina, SK, S4S 3A3",1,1.0,0,1,1,0,1,675,0,0,0,0,1,0,0,0,0,0,0,0,1,0,1,0,0,0,0,0,0,0,0,0,0,0,50.4144141,-104.62140900028498
84,884,"801 Grey Street, Regina, SK, S4T 5G8",2,1.0,0,1,1,0,1,720,0,0,0,0,1,0,0,0,0,0,0,0,1,0,1,0,0,0,0,0,0,0,0,0,0,0,50.4654359,-104.6550057059113
85,849,"3955 Robinson Street, Regina, SK, S4S 3C7",1,1.0,0,1,1,0,1,675,0,0,0,0,1,0,0,0,0,0,0,0,1,0,1,0,0,0,0,0,0,0,0,0,0,0,50.41608755,-104.6235269
86,879,"2155 Rose Street, Regina, SK, S4P 2A5",1,1.0,0,1,1,0,1,675,0,0,0,0,1,0,0,0,0,0,0,0,1,0,1,0,0,0,0,0,0,0,0,0,0,0,50.4445512,-104.60752017514639
87,1100,"420 Toronto Street, Regina, SK, S4R 1M4",2,1.0,0,0,0,0,0,900,0,0,0,0,1,0,0,0,0,0,0,0,1,1,1,0,0,0,0,0,0,0,0,0,0,0,50.471920850000004,-104.59948814204179
88,980,"2131 Angus Street, Regina, SK, S4T 2A1",1,1.0,0,1,1,0,1,615,0,1,0,0,1,0,0,0,0,0,0,0,1,0,1,1,0,0,0,0,0,0,0,0,1,0,50.44490885,-104.6192048856471
89,1020,"453 Retallack Street, Regina, SK, S4R 3N4",2,1.0,0,1,1,0,1,1000,0,1,0,0,1,0,0,0,0,0,0,0,1,0,1,1,0,0,0,0,0,0,0,0,0,0,50.4771602,-104.6225169
90,1120,"2657  Lacon Street, Regina, SK, S4N 2A5",2,1.0,0,1,1,0,1,773,0,1,0,0,1,0,0,0,0,0,0,0,1,0,1,1,0,0,0,0,0,0,0,0,0,0,50.4534717,-104.5693188
91,750,"2104  14th Ave, Regina, SK, S4P 0X6",1,1.0,0,1,1,0,1,343,0,0,0,0,1,0,0,0,0,0,0,0,1,0,1,1,0,0,0,0,0,0,0,0,0,0,50.4440296,-104.5688047
92,1500,"2315 McIntyre St, Regina, SK S4P 3Y8, Canada",2,1.0,1,1,1,1,0,700,0,1,0,0,0,0,1,0,0,0,0,0,1,0,1,0,1,0,0,0,0,0,0,0,1,0,50.4751379,-104.6166143
93,2300,"3117 Trombley Street, Regina, SK, S4V 3S1",3,2.5,0,0,0,0,1,1186,0,1,0,0,0,0,0,0,1,0,0,0,1,1,1,0,1,0,0,0,0,0,0,0,0,1,50.4303224,-104.5138082
94,1150,"3068 Greenbank Road, Regina, SK, S4V 3R7",2,1.0,0,0,0,0,1,1000,0,1,0,0,1,0,0,0,0,0,0,0,1,1,1,0,1,0,0,0,0,0,0,0,0,1,50.428267,-104.522816
95,1150,"3076 George Street, Regina, SK, S4V 3X3",2,1.0,0,0,0,0,1,1000,0,1,0,0,1,0,0,0,0,0,0,0,1,1,1,0,1,0,0,0,0,0,0,0,0,1,50.4314179,-104.5108068
96,1140,"3928 Green Falls Drive, Regina, SK, S4V 3M1",1,1.0,0,1,1,0,1,615,0,1,0,0,1,0,0,0,0,0,0,0,0,1,1,0,1,0,0,0,1,1,1,0,1,0,50.41547775,-104.5155892367307
97,1190,"4013 Harbour Landing Dr, Regina, SK, S4W 0E5",2,1.0,0,0,1,0,1,691,0,1,0,0,1,0,0,0,0,0,0,0,1,1,1,0,1,0,0,0,1,1,1,0,1,0,50.4180892,-104.6487588
98,1070,"4013 Harbour Landing Dr, Regina, SK, S4W 0E5",1,1.0,0,0,1,0,1,546,0,1,0,0,1,0,0,0,0,0,0,0,1,1,1,0,1,0,0,0,1,1,1,0,1,0,50.4180892,-104.6487588
99,1060,"5929 Rochdale Blvd, Regina, SK, S4X 0M3",1,1.0,0,0,1,0,1,566,0,1,0,0,1,0,0,0,0,0,0,0,1,1,1,0,1,0,0,0,1,0,0,0,1,0,50.4952793,-104.6868619
100,1140,"5501 Prefontaine Ave, Regina, SK, S4W 0S3",1,1.0,0,1,1,0,1,615,0,1,0,0,1,0,0,0,0,0,0,0,1,1,1,0,1,0,0,0,1,1,0,0,1,0,50.4125124,-104.6602563
101,1230,"5601 Gordon Road, Regina, SK, S4W 0M6",2,1.0,0,0,1,0,1,825,0,1,0,0,1,0,0,0,0,0,0,0,1,1,1,0,1,0,0,0,1,0,0,0,1,0,50.4053187,-104.6631924
102,1215,"5601 Gordon Road, Regina, SK, S4W 0M6",1,1.0,0,0,1,0,1,780,0,1,0,0,1,0,0,0,0,0,0,0,1,1,1,0,1,0,0,0,1,0,0,0,1,0,50.4053187,-104.6631924
103,1295,"5501 Prefontaine Ave, Regina, SK, S4W 0S3",2,1.0,0,1,1,0,1,840,0,1,0,0,1,0,0,0,0,0,0,0,1,1,1,0,1,0,0,0,1,1,0,0,1,0,50.4125124,-104.6602563
104,1300,"224 Osler St, Regina, SK S4R 1V4, Canada",3,1.0,1,1,1,1,1,950,0,0,0,0,0,0,0,0,1,0,0,0,1,0,1,1,0,0,0,0,0,0,0,0,0,1,50.474920499999996,-104.60521359830935
105,1300,"2271 Argyle Street, S4T 3T2, Regina, SK",2,1.0,0,0,0,2,0,800,0,0,0,0,0,0,0,0,1,0,0,0,1,1,1,1,0,0,0,0,0,0,0,0,0,1,50.44264645,-104.63228860791605
106,1500,"1132 Gordon street, S0G3N0, Moosomin, SK",5,2.0,0,0,0,3,0,2000,0,1,0,0,0,0,0,0,1,0,0,0,1,1,1,0,1,0,0,0,0,0,0,0,0,1,50.1416336,-101.6716786
107,933,"22-41 Munroe Pl., Regina, SK, S4S 6A7",2,1.0,0,1,1,1,1,860,0,1,1,0,1,0,0,0,0,0,0,1,1,0,1,1,0,1,0,0,0,0,0,1,1,0,50.4143164,-104.6015627
108,1079,"191 Rink Ave., Regina, SK, S4R 7V3",2,1.0,0,1,1,1,1,850,0,0,1,0,1,0,0,0,0,0,0,1,1,0,1,1,0,1,0,0,0,0,0,1,1,0,50.4876156,-104.6540681
109,1350,"5300 Parliament Ave, Regina, SK, S4W 0R5",2,1.0,0,0,1,1,1,777,0,1,0,0,1,0,0,0,0,0,0,0,1,1,1,0,1,0,0,0,1,1,0,0,1,0,50.4153721,-104.6092651
110,825,"1900 Garnet St, Regina, SK S4T 2Z4, Canada",1,1.0,0,1,1,1,0,550,0,0,0,0,1,0,0,0,0,0,0,0,1,0,1,1,0,0,0,0,0,0,0,0,0,1,50.448658449999996,-104.62717577073157
111,1800,"417 St Mary St, Esterhazy, SK S0A 0X0, Canada",3,1.5,1,1,1,2,1,1400,1,1,0,0,0,0,0,1,0,0,1,1,1,1,1,0,1,0,0,0,0,0,0,0,1,1,50.6573366,-102.0808245
112,700,"113 1 St W, Carnduff, SK S0C 0S0, Canada",3,1.0,0,0,1,2,0,840,0,0,0,0,0,0,0,0,1,0,0,0,0,0,1,1,0,0,0,0,0,0,0,0,0,1,49.176560,-101.796929
113,1000,"S4N0T9, Canada",2,1.0,0,1,1,1,0,900,0,1,0,0,1,0,0,0,0,0,0,0,0,0,1,1,0,0,1,0,0,0,0,0,0,1,61.0666922,-107.991707
114,1050,"2840 Mcara Street, Regina S4N2X4 SK",2,1.0,0,0,0,2,0,900,0,0,0,0,0,0,0,1,0,0,0,0,1,1,1,0,1,0,0,0,0,0,0,0,0,1,50.4338173,-104.58251738576962
115,2200,", S4P3V7, Regina, SK",4,2.0,0,0,0,2,0,2000,1,1,0,0,0,0,0,0,1,0,1,1,0,1,1,0,1,0,0,0,0,0,0,0,0,1,50.4193012,-104.58222594380054
116,625,", Regina S4P1J9 SK, Canada",1,1.0,0,0,0,0,0,500,0,0,0,1,0,0,0,0,1,0,0,0,0,0,0,0,1,0,0,0,0,0,0,0,0,1,50.483860050000004,-104.56455595
117,750,"4216 Castle Rd, Regina, SK S4S 4W1, Canada",1,1.0,1,1,1,1,1,450,1,1,0,1,0,1,0,0,0,0,1,1,1,1,1,1,1,0,0,0,0,0,0,0,0,0,50.4108733,-104.599646
118,1150,"19 Irwin Ave, Yorkton, SK S3N 2E4, Canada",3,1.0,0,0,0,1,1,850,0,0,0,0,0,0,0,0,1,0,0,0,0,0,0,1,0,0,0,0,0,0,0,0,0,1,51.2106704,-102.4786489
119,1800,"3630 Haughton Rd, Regina, SK S4V 1P1, Canada",2,2.0,1,1,1,1,0,1100,1,1,0,0,0,0,1,0,0,0,1,1,0,1,1,0,1,1,1,0,1,0,0,0,1,0,50.4405599,-104.5292377
120,975,"2022 Edgar Street, Regina S4N3K6 SK",2,1.0,0,0,0,2,1,700,0,0,0,0,0,0,0,0,1,0,0,0,1,0,0,0,1,0,0,0,0,0,0,0,0,1,50.446607349999994,-104.58828110272859
121,1400,"1863 Rae Street, S4T 2E3, Regina, SK",2,1.5,0,0,0,1,1,846,0,1,0,0,0,0,1,0,0,0,0,0,1,1,1,0,1,1,1,0,1,0,0,1,1,0,50.4209589,-104.6211505
122,1950,"2046 Alexandra St, Regina, SK S4T 4P5, Canada",4,2.5,0,0,0,3,0,1575,0,1,0,0,0,0,0,0,1,0,0,0,1,1,1,0,1,0,0,0,0,0,0,0,1,1,50.4461691,-104.64410680185483
123,835,"1016 Eden St, Indian Head, SK S0G 2K0, Canada",2,1.0,0,1,1,1,0,750,0,1,0,0,1,0,0,0,0,0,0,1,0,0,1,1,0,0,1,0,0,0,0,1,1,1,50.5360587,-103.670417
124,1250,"2167 Pasqua St, Regina, SK S4T 4M3, Canada",2,1.0,0,0,0,1,0,952,0,0,0,0,0,0,0,0,1,0,0,0,1,1,1,0,1,0,0,0,0,0,0,0,0,1,50.44427455,-104.64062107417536
125,827,"936 McIntosh St, Regina, SK S4T 5B4, Canada",2,1.0,0,1,1,1,0,700,0,0,0,0,1,0,0,0,0,0,1,0,1,0,1,1,0,0,0,0,0,0,0,1,0,1,50.46418225,-104.6528939054426
126,1500,"S4P 2V2, Canada",2,2.0,1,1,1,1,0,1000,0,1,0,0,0,0,1,0,0,0,0,0,1,1,1,0,1,0,1,0,1,0,0,1,1,0,61.0666922,-107.991707
127,1200,"Carnduff, SK, Canada",2,2.0,1,0,1,3,0,959,1,1,0,0,0,0,1,0,0,0,0,0,0,1,1,1,1,0,1,0,0,0,0,1,1,1,49.1748399,-101.7972633
128,1750,"3500 13th Ave, Regina, SK S4T 1P9, Canada",3,3.0,0,0,0,1,1,1600,0,1,0,0,0,0,0,0,0,1,0,0,1,0,1,0,1,0,0,0,0,0,0,0,1,0,50.4455082,-104.6282811
129,699,"1424 Victoria Ave, Regina, SK, S4P 0P3",1,1.0,0,1,1,0,1,402,0,0,0,0,1,0,0,0,0,0,0,0,1,0,1,0,0,0,0,0,0,0,0,0,0,0,50.4474552,-104.6015730253819
130,1596,"1827 Albert St, Regina, SK, S4P 2S9",1,1.0,1,1,1,1,0,734,0,1,0,0,1,0,0,0,0,0,1,0,1,0,1,1,1,1,0,0,0,1,0,0,0,0,50.4499932,-104.61756462177226
131,1300,"4805 Liberty St, Regina, SK S4W 0K2, Canada",2,1.0,0,0,0,1,0,1000,0,1,0,1,0,0,0,0,1,0,0,0,1,1,1,0,1,0,0,0,0,0,0,0,0,1,50.4023051,-104.66153320990566
132,1200,"2125 Osler St, Regina, SK S4P 4G9, Canada",2,1.0,0,1,1,1,0,900,0,0,0,0,1,0,0,0,0,0,0,0,1,0,0,0,1,0,0,0,1,0,0,0,1,0,50.444666100000006,-104.60446759999999
133,1300,"1545 Neville Dr, Regina, SK S4Z 0A7, Canada",2,1.0,0,1,1,1,0,750,0,1,0,0,0,0,0,0,0,1,0,0,1,1,1,0,1,0,0,0,0,0,0,0,1,0,50.4532696,-104.52693588290384
134,1100,"1039 Elliott St, Regina, SK S4N 3E7, Canada",3,1.0,0,0,0,0,0,700,0,0,0,0,0,1,0,0,0,0,0,0,1,0,0,0,1,0,0,0,0,0,0,0,0,0,50.46219855,-104.58620777504046
135,850,"2175  Rae Street, Regina, SK, S4T 2E8",1,1.0,0,1,1,0,1,380,0,1,0,0,1,0,0,0,0,0,0,0,1,0,1,1,0,0,0,0,0,0,0,0,0,0,50.444161449999996,-104.6206538
136,935,"505 Rose St, Regina, SK S4R 1Z4, Canada",2,1.0,0,1,1,1,0,800,0,1,0,0,1,0,0,0,0,0,0,0,0,0,1,1,0,0,0,0,0,0,0,0,1,0,50.4788692,-104.6079614
137,849,"3525 Avonhurst Dr, Regina, SK, S4R 3K2",2,1.0,0,1,1,0,1,763,0,0,0,0,1,0,0,0,0,0,0,0,1,0,1,1,0,0,0,0,0,0,0,0,0,1,50.4707985,-104.6182456
138,933,"22-41 Munroe Pl., Regina, SK, S4S 6A7",2,1.0,0,1,1,1,1,860,0,1,1,0,1,0,0,0,0,0,0,1,1,0,1,1,0,1,0,0,0,0,0,1,1,0,50.4143164,-104.6015627
139,800,"Waterloo Rd, Yorkton, SK S3N, Canada",2,1.0,0,0,0,2,0,1000,0,0,0,0,1,0,0,0,0,0,0,0,0,0,1,0,1,0,0,0,0,0,0,0,1,0,51.222697,-102.473675
140,1395,"614 3rd St, Estevan, SK S4A 0P6, Canada",2,1.0,0,1,1,2,1,950,1,1,0,0,0,0,1,0,0,0,0,0,0,1,1,1,1,1,1,1,1,0,0,1,1,0,49.1380657,-102.9914709
141,1000,"638 Isabelle St, Estevan, SK S4A 1P7, Canada",2,1.0,0,1,1,2,1,1025,0,1,0,0,1,0,0,0,0,0,0,0,1,1,1,0,1,1,0,1,1,0,0,1,1,0,49.1504569,-102.986653
142,1195,"563 Sorlien Ave, Macoun, SK S0C 1P0, Canada",3,1.0,0,0,0,3,1,1000,0,0,0,0,0,0,0,0,1,0,0,0,1,0,0,0,1,0,0,0,0,0,0,0,1,1,49.316265,-103.260344
143,1275,"333 Lorne Street, S4R2J3, Regina, SK",2,2.0,0,0,0,2,1,1040,0,1,0,1,0,0,0,1,0,0,0,0,1,0,0,0,1,0,0,0,0,0,0,0,0,1,50.473242,-104.61336772499999
144,850,", Indian Head S0G2K0 SK, Canada",2,1.0,1,1,1,3,0,850,0,0,0,0,1,0,0,0,0,0,0,0,1,0,1,0,1,0,0,0,0,0,0,0,0,0,50.5259962,-103.6510912
145,2300,"1342 Elliott St, Saskatoon, SK S7N 0V8, Canada",5,2.0,0,0,0,1,0,1200,0,0,0,0,0,0,0,1,0,0,0,0,1,1,1,0,1,0,0,0,0,0,0,0,0,1,52.1278816,-106.638917
146,850,", S4N1W3, Regina, SK",1,1.0,0,1,1,0,0,800,0,1,0,0,0,1,0,0,0,0,1,0,1,0,1,1,0,0,0,0,0,0,0,0,0,0,50.4193012,-104.58222594380054
147,985,"S4S6P8, Canada",2,1.0,1,1,1,1,0,909,1,1,0,1,1,0,0,0,0,0,1,1,1,0,1,1,0,1,1,0,0,0,0,1,1,0,61.0666922,-107.991707
148,995,"2001 Cornwall St, Regina, SK S4P 3X9, Canada",1,1.0,0,1,1,1,0,630,0,1,0,0,1,0,0,0,0,0,0,0,1,0,1,1,0,1,0,0,1,1,0,0,1,0,50.4461824,-104.61187147178724
149,2300,"S4P2A6, Canada",5,4.0,0,0,0,3,1,2400,1,1,0,0,0,0,0,0,1,0,0,0,1,1,1,1,1,0,0,0,0,0,0,0,0,1,61.0666922,-107.991707
150,1200,"1630 Badham Blvd, Regina S4P0J6 SK",1,1.0,1,1,1,0,0,500,1,1,0,0,0,1,0,0,0,0,1,1,1,1,1,1,0,0,0,0,0,0,0,0,1,0,50.4390256,-104.6047007
151,1400,"537 4th Ave N, Saskatoon, SK S7K 2M6, Canada",2,1.0,1,1,1,1,0,1008,0,1,0,0,1,0,0,0,0,0,0,0,1,1,1,0,1,0,0,0,1,0,0,0,1,0,52.1297647,-106.6596531
152,1000,", Regina s4x0m4 SK, Canada",1,1.0,1,1,1,0,0,650,0,1,0,0,0,1,0,0,0,0,1,0,0,0,1,0,1,0,0,0,0,0,0,0,0,0,50.483860050000004,-104.56455595
153,1275,"5000 Green Jewel Blvd, Regina, SK, S4V 3V2",1,1.0,0,1,1,0,1,662,0,1,0,0,1,0,0,0,0,0,0,0,1,1,1,0,1,0,0,0,1,1,0,0,1,0,50.4180943,-104.5110485
154,1295,"5501 Prefontaine Ave, Regina, SK, S4W 0S3",2,1.0,0,1,1,0,1,840,0,1,0,0,1,0,0,0,0,0,0,0,1,1,1,0,1,0,0,0,1,1,0,0,1,0,50.4125124,-104.6602563
155,1100,"411 Lorne St N, Regina, SK S4R 3B2, Canada",2,1.0,0,1,1,1,1,900,0,1,0,0,1,0,0,0,0,0,0,0,1,0,1,1,0,0,0,0,0,0,0,0,1,0,50.4825463,-104.6132852
156,1050,"1213 Empress St, Regina, SK S4T 5E4, Canada",2,1.0,0,1,1,1,0,700,0,1,0,0,1,0,0,0,0,0,0,0,0,1,1,1,0,0,0,0,0,0,0,0,0,0,50.459567,-104.65357155000001
157,1464,"1066 Dorothy St., Regina, SK, S4X 0P4",2,2.0,0,1,1,0,1,916,0,1,1,0,1,0,0,0,0,0,0,1,1,1,1,0,1,1,0,0,1,0,0,0,1,0,50.4780904,-104.6824945
158,1464,"1070 Dorothy St., Regina, SK, S4X 0P5",2,2.0,0,1,1,0,1,915,0,1,1,0,1,0,0,0,0,0,0,1,1,1,1,0,1,1,0,0,1,0,0,0,1,0,50.4780904,-104.6824945
159,1124,"1060 Dorothy St., Regina, SK, S4X 3C5",2,1.0,0,0,1,0,1,877,0,1,1,0,1,0,0,0,0,0,0,1,1,1,1,0,1,1,0,0,0,1,0,0,1,1,50.4780904,-104.6824945
160,1800,"Green Rock Rd, Regina, SK S4V, Canada",3,2.5,0,0,0,2,0,1350,0,1,0,0,0,0,0,0,1,0,0,0,1,1,1,0,1,0,0,0,0,0,0,0,0,1,50.425383,-104.515726
161,980,"Wallace St, Regina, SK S4N 3Z9, Canada",2,1.0,1,1,1,2,0,700,1,0,0,0,0,1,0,0,0,0,1,0,1,0,0,1,0,0,0,0,0,0,0,0,0,1,50.461391,-104.5937539
162,1050,"42 Spence St, Regina, SK S4S 4H4, Canada",1,1.0,0,0,1,1,0,634,0,1,0,0,0,0,1,0,0,0,0,0,1,1,1,1,0,0,0,0,0,0,0,0,1,0,50.4129554,-104.61583911771534
163,1445,"5200 Parliament Ave, Regina, SK S4W 0R5, Canada",2,2.0,0,0,1,2,1,857,0,1,0,1,1,0,0,0,0,0,0,0,0,0,1,0,1,0,0,0,1,1,0,0,1,0,50.418041200000005,-104.65552856002125
164,750,"2166 Robinson St, Regina, SK S4T 2P7, Canada",1,1.0,0,1,1,0,0,500,0,0,1,0,1,0,0,0,0,0,1,0,0,0,1,0,0,1,0,0,0,0,0,0,1,1,50.4442194,-104.62428703433734
165,1000,"4505 Rae St, Regina, SK S4S 3B2, Canada",2,1.5,0,1,1,2,0,1000,0,1,0,0,0,0,1,0,0,0,0,0,1,1,1,1,0,1,0,0,1,0,0,1,1,0,50.4085551,-104.6204844045766
166,1000,"Garnet St, Regina, SK, Canada, S4T 2Y2",2,1.0,0,0,0,2,0,840,1,0,0,0,0,0,0,0,1,0,0,0,1,0,1,1,1,0,0,0,0,0,0,0,0,1,50.4797503,-104.6268662
167,1300,"2030 Edgar Street, Regina, SK, S4N 3K6",3,1.5,0,0,0,0,1,1100,0,1,0,0,1,0,0,0,0,0,0,0,1,1,1,0,0,0,0,0,0,0,0,0,0,1,50.44647705,-104.5883061012398
168,1398,"502 University Park Drive, Regina, SK, S4V 3L8",2,1.0,0,1,1,1,1,954,0,1,0,1,1,0,0,0,0,0,0,0,1,1,1,0,1,0,0,0,1,0,0,0,1,0,50.4334839,-104.5560807
169,1319,"41 Munroe Place, Regina, SK, S4S 6A7",1,1.0,0,1,1,0,1,650,0,1,1,0,1,0,0,0,0,0,0,1,1,0,1,0,1,1,0,0,0,0,0,1,1,1,50.4143164,-104.6015627
170,1495,"1114-5200 Parliament Ave, Regina, SK S4W 0R5, Canada",2,2.0,1,1,1,1,0,900,1,1,0,1,0,0,1,0,0,0,0,0,1,1,1,1,1,1,1,1,1,1,0,1,1,0,50.4125443,-104.6210175
171,1089,"239 Centennial St, Regina, SK S4S 6T5, Canada",2,1.0,0,1,1,1,1,850,0,1,0,0,0,0,1,0,0,0,1,1,1,0,1,0,1,0,0,0,0,0,0,1,1,0,50.41392,-104.597823
172,1100,"Tutor Way, Regina, SK S4W 0G4, Canada",2,1.0,1,1,1,2,0,975,0,1,0,0,0,1,0,0,0,0,1,0,1,1,1,0,1,0,0,0,0,0,0,0,0,0,50.415594,-104.6528277
173,1148,"41 Munroe Place, Regina, SK, S4S 6A7",2,1.0,0,1,1,0,1,850,0,1,1,0,1,0,0,0,0,0,0,1,1,0,1,0,1,1,0,0,0,0,0,1,1,1,50.4143164,-104.6015627
174,1295,"5501 Prefontaine Ave, Regina, SK, S4W 0S3",2,1.0,0,1,1,0,1,840,0,1,0,0,1,0,0,0,0,0,0,0,1,1,1,0,1,0,0,0,1,1,0,0,1,0,50.4125124,-104.6602563
175,1300,"331  Broad Street North, Regina, SK, S4R 2X8",2,2.0,0,1,1,0,1,832,0,1,0,0,1,0,0,0,0,0,0,0,1,0,1,1,0,0,0,0,0,0,0,0,1,0,50.4907451,-104.6061213
176,1100,", Regina South S4W0G4 SK, Canada",2,1.0,1,1,1,2,0,975,0,1,0,0,0,1,0,0,0,0,1,0,1,1,1,0,1,0,0,0,0,0,0,0,0,0,50.483860050000004,-104.56455595
177,1450,"5663 Mitchinson Way, Regina, SK, S4W 0P9",3,2.0,0,0,0,0,1,1000,0,1,0,0,1,0,0,0,0,0,0,0,1,1,1,0,1,0,0,0,0,0,0,0,0,1,50.4108374,-104.6588214
178,945,"2410  15th Avenue, Regina, SK, S4P 1A4",1,1.0,0,1,1,0,1,620,0,1,0,0,1,0,0,0,0,0,0,0,1,0,1,1,0,0,0,0,0,0,0,0,1,0,50.4424072,-104.6361996
179,1350,"48 B Nollet Ave, Regina S4T 7P9 SK",2,1.0,0,1,1,1,0,1000,0,1,0,0,0,0,1,0,0,0,0,0,1,1,1,0,1,0,0,0,0,0,0,0,1,0,50.4823308,-104.6707827
180,750,"3208 Westgate Ave, Regina, SK S4S 1B3, Canada",1,1.0,0,1,1,1,0,500,0,0,0,0,1,0,0,0,0,0,0,0,1,0,1,1,0,0,1,0,0,0,0,0,0,0,50.4255467,-104.62697245012498
181,1200,"1823 York St, Regina, SK S4T 4R3, Canada",2,1.0,0,0,0,2,0,750,0,0,0,0,0,0,0,0,1,0,0,0,1,1,1,0,1,0,0,0,0,0,0,0,0,1,50.4500673,-104.6449117
182,750,"80 Hanbidge Cres, Regina, SK, S4R 7C4",1,1.0,0,1,1,1,0,820,0,1,0,0,1,0,0,0,0,0,0,0,1,0,1,1,0,0,0,0,0,0,0,0,1,0,50.4754928,-104.6584998
183,800,"131 Angus Rd, Regina, SK S4R 5E4, Canada",1,1.0,1,1,1,1,1,650,0,1,0,0,1,0,0,0,0,0,0,0,0,0,0,1,0,0,0,0,0,0,0,0,1,0,50.48386,-104.6204153
184,1295,"Dakota Dr, Regina, SK S4Z, Canada",2,2.0,0,0,1,2,0,1160,0,1,0,0,0,0,1,0,0,0,0,0,1,1,1,0,1,0,0,0,1,0,0,1,1,0,50.451270,-104.530950
185,1590,"5290 Aerodrome Rd, Regina, SK S4W 0P4, Canada",3,1.5,0,0,0,1,0,1100,0,0,0,0,0,0,0,0,0,1,0,0,1,1,1,0,1,0,0,0,0,0,0,0,1,0,50.4069205,-104.6583422
186,1155,"539 Wascana St, Regina, SK S4R 4J3, Canada",2,1.0,0,0,0,0,0,1030,0,1,0,0,0,0,0,1,0,0,0,0,1,1,1,0,1,0,0,0,0,0,0,0,1,0,50.470251000000005,-104.63947120458397
187,350,", Scarborough  M1B4P7  ON, Canada",1,1.0,1,1,1,0,0,200,0,1,0,0,0,1,0,0,0,0,0,0,1,0,1,1,0,0,0,0,0,0,0,0,0,1,43.810339,-79.3386442
188,1350,"2236 Wallace St, Regina, SK S4N 4A7, Canada",2,1.0,1,1,1,1,1,772,0,1,0,0,0,0,0,0,1,0,0,0,1,0,1,1,0,0,0,0,0,0,0,0,0,1,50.44324145,-104.5940040127451
189,1500,"Balmoral St, Yorkton, SK S3N, Canada",2,1.0,0,1,1,1,0,904,1,1,0,0,1,0,0,0,0,0,0,0,0,1,1,0,1,0,0,0,1,1,0,0,1,0,51.213453,-102.455880
190,1150,"1969 St John St, Regina, SK, S4P 1S3",2,1.0,0,0,0,0,1,747,0,0,0,0,1,0,0,0,0,0,0,0,1,0,1,0,0,0,0,0,0,0,0,0,0,0,50.447722850000005,-104.6017784017572
191,999,"1424 Victoria Ave, Regina, SK, S4P 0P3",2,1.0,0,1,1,0,1,585,0,0,0,0,1,0,0,0,0,0,0,0,1,0,1,0,0,0,0,0,0,0,0,0,0,0,50.4474552,-104.6015730253819
192,854,"3823 Retallack Street, Regina, SK, S4S 3B7",1,1.0,0,1,1,0,1,480,0,0,0,0,1,0,0,0,0,0,0,0,1,0,1,0,0,0,0,0,0,0,0,0,0,0,50.4181294,-104.62205302388142
193,854,"4050 Rae Street, Regina, SK, S4S 3A3",1,1.0,0,1,1,0,1,410,0,0,0,0,1,0,0,0,0,0,0,0,1,0,1,0,0,0,0,0,0,0,0,0,0,0,50.4144141,-104.62140900028498
194,1074,"3823 Retallack Street, Regina, SK, S4S 3B7",2,1.0,0,1,1,0,1,910,0,0,0,0,1,0,0,0,0,0,0,0,1,0,1,0,0,0,0,0,0,0,0,0,0,0,50.4181294,-104.62205302388142
195,1074,"4050 Rae Street, Regina, SK, S4S 3A3",2,1.0,0,1,1,0,1,910,0,0,0,0,1,0,0,0,0,0,0,0,1,0,1,0,0,0,0,0,0,0,0,0,0,0,50.4144141,-104.62140900028498
196,994,"3823 Retallack Street, Regina, SK, S4S 3B7",1,1.0,0,1,1,0,1,675,0,0,0,0,1,0,0,0,0,0,0,0,1,0,1,0,0,0,0,0,0,0,0,0,0,0,50.4181294,-104.62205302388142
197,925,"Central Estevan, Estevan, SK, S4A 3A2",1,1.0,0,1,1,1,1,775,1,1,0,0,0,0,1,0,0,0,0,0,1,1,1,0,1,1,1,1,1,0,0,0,1,0,49.1402905,-102.99536171487853
198,1000,"Central Estevan, Estevan, SK, S4A 1P7",2,1.0,0,1,1,2,1,1025,0,0,0,0,1,0,0,0,0,0,0,0,1,1,1,0,1,1,1,1,1,0,0,1,1,1,49.1402905,-102.99536171487853
199,1175,"Central Estevan, Estevan, SK, S4A 1P7",2,1.0,0,1,1,1,1,1000,1,1,0,0,0,0,1,0,0,0,0,0,1,1,1,0,1,1,0,1,1,0,0,0,1,0,49.1402905,-102.99536171487853
200,1268,"700 Gladmer Pk., Regina, SK, S4P 2W9",3,1.0,0,0,0,1,1,1056,0,0,1,0,0,0,0,0,0,1,0,1,1,1,1,0,1,0,0,0,0,0,0,0,1,1,50.435046,-104.603461
201,799,"1424 Victoria Ave, Regina, SK, S4P 0P3",1,1.0,0,1,1,0,1,520,0,0,0,0,1,0,0,0,0,0,0,0,1,0,1,0,0,0,0,0,0,0,0,0,0,0,50.4474552,-104.6015730253819
202,1285,"3928 Green Falls Drive, Regina, SK, S4V 3M1",2,1.0,0,1,1,0,1,840,0,1,0,0,1,0,0,0,0,0,0,0,0,1,1,0,1,0,0,0,1,1,1,0,1,0,50.41547775,-104.5155892367307
203,850,"2175  Rae Street, Regina, SK, S4T 2E8",1,1.0,0,1,1,0,1,380,0,1,0,0,1,0,0,0,0,0,0,0,1,0,1,1,0,0,0,0,0,0,0,0,0,0,50.444161449999996,-104.6206538
204,950,"2115  Montague St, Regina, SK, S4T 3K1",1,1.0,0,1,1,0,1,465,0,0,0,0,1,0,0,0,0,0,0,0,1,0,1,1,0,0,0,0,0,0,0,0,0,0,50.445280600000004,-104.62933502581414
205,1300,"5281 Aviator Crescent, S4W0G9, Regina, SK",2,1.5,0,1,1,1,0,1100,0,1,0,0,0,1,0,0,0,0,1,0,1,0,1,0,1,0,0,0,0,0,0,0,0,1,50.41276485,-104.65737250112895
206,1500,"138 Turner Crescent, Regina, SK S4N 4P6, Canada",3,1.0,0,0,0,2,1,1000,1,1,0,0,0,0,0,0,1,0,0,0,1,1,1,1,0,0,0,0,0,0,0,0,0,1,50.453086,-104.54609192438312
207,1000,"2151 Hamilton Street, S4P 2E5, Regina, SK",1,1.0,0,1,1,0,0,680,0,1,0,0,1,0,0,0,0,0,0,0,0,1,1,1,0,1,0,1,0,0,0,0,0,0,50.4446235,-104.6089675
208,795,"2151 Hamilton Street, S4P 2E5, Regina, SK",1,1.0,0,1,1,0,0,680,0,1,0,0,1,0,0,0,0,0,0,0,0,0,1,1,0,1,0,1,0,0,0,0,0,0,50.4446235,-104.6089675
209,700,"4701 4 Ave, Regina, SK S4T 0J5, Canada",2,1.0,0,1,1,1,0,700,0,0,0,0,1,0,0,0,0,0,0,0,0,0,1,1,0,1,0,0,0,0,0,0,0,0,50.7915661,-104.9739939
210,750,"1142 Garry St, Regina, SK S4T 5R4, Canada",1,1.0,0,0,0,2,1,750,0,0,1,1,0,0,0,0,1,0,0,0,1,0,0,0,1,0,0,0,0,0,0,0,0,1,50.4605133,-104.66567484216867
211,900,"4045 Rae St, Regina, SK S4S 6Y8, Canada",1,1.0,0,1,1,1,0,710,0,1,0,0,0,0,1,0,0,0,0,0,1,1,1,1,0,1,1,0,0,1,0,0,1,0,50.4146105,-104.62063694188741
212,850,"1431 Rae, S4p 3g1, Regina, SK",2,1.0,0,0,0,1,0,600,0,0,0,0,0,0,0,0,1,0,0,0,1,0,0,0,0,0,0,0,0,0,0,0,0,1,50.456133,-104.620650
213,925,", Regina S4T1Y5 SK, Canada",2,1.0,0,0,0,1,1,1050,0,0,0,0,0,0,0,1,0,0,0,0,0,1,1,0,1,0,0,0,0,0,0,0,0,1,50.483860050000004,-104.56455595
214,1500,"1829 Second A Street, S4A 0J8, Estevan, SK",4,2.0,0,1,0,3,0,1200,0,1,0,1,0,0,0,0,1,0,0,0,1,0,1,1,0,0,0,0,0,0,0,0,0,1,49.144213,-103.010052
215,975,"718 3rd St, Estevan, SK S4A 0P7, Canada",1,1.0,0,1,1,1,0,785,0,1,0,0,0,0,1,0,0,0,0,0,1,1,1,0,1,1,0,1,1,0,0,1,1,0,49.1380657,-102.9914709
216,1100,"Regina, SK, Canada, S4N 1T2",1,1.0,0,0,0,2,0,900,0,1,0,0,0,0,0,1,0,0,0,0,1,0,1,1,0,0,0,0,0,0,0,0,0,1,50.483860050000004,-104.56455595
217,854,"3954 Retallack Street, Regina, SK, S4S 3B9",1,1.0,0,1,1,0,1,480,0,0,0,0,1,0,0,0,0,0,0,0,1,0,1,0,0,0,0,0,0,0,0,0,0,0,50.41609455,-104.6228215
218,1414,"4130 Rae Street, Regina, SK, S4S 3A4",3,1.0,0,1,1,0,1,1161,0,0,0,0,1,0,0,0,0,0,0,0,1,0,1,0,0,0,0,0,0,0,0,0,0,0,50.41316365,-104.62144520000001
219,994,"4140 Rae Street, Regina, SK, S4S 3A4",1,1.0,0,1,1,0,1,675,0,0,0,0,1,0,0,0,0,0,0,0,1,0,1,0,0,0,0,0,0,0,0,0,0,0,50.413030000000006,-104.6213994750627
220,1074,"4049 Retallack Street, Regina, SK, S4S 3C2",2,1.0,0,1,1,0,1,910,0,0,0,0,1,0,0,0,0,0,0,0,1,0,1,0,0,0,0,0,0,0,0,0,0,0,50.41399765,-104.62209222509608
221,1154,"4064 Rae Street, Regina, SK, S4S 3A3",2,1.0,0,1,1,0,1,910,0,0,0,0,1,0,0,0,0,0,0,0,1,0,1,0,0,0,0,0,0,0,0,0,0,0,50.414198,-104.62135429993356
222,799,"1538 Alexandra Street, Regina, SK, S4T 4N9",1,1.0,0,1,1,0,1,650,0,0,1,0,1,0,0,0,0,0,0,0,1,0,1,1,0,0,0,0,0,0,0,0,0,0,50.454023750000005,-104.64412339990409
223,1525,"4160 Rae Street, Regina, SK, S4S 3A4",3,1.0,0,1,1,0,1,1061,0,0,0,0,1,0,0,0,0,0,0,0,1,0,1,0,0,0,0,0,0,0,0,0,0,0,50.412692500000006,-104.6214497
224,1504,"2915 Parliament Ave, Regina, SK, S4S 2L3",3,1.0,0,1,1,0,1,1161,0,0,0,0,1,0,0,0,0,0,0,0,1,0,1,0,0,0,0,0,0,0,0,0,0,0,50.4151487,-104.62293708668133
225,734,"4120 Retallack Street, Regina, SK, S4S 3C3",1,1.0,0,1,1,0,1,320,0,0,0,0,1,0,0,0,0,0,0,0,1,0,1,0,0,0,0,0,0,0,0,0,0,0,50.413219049999995,-104.62288207499995
226,1154,"4160 Rae Street, Regina, SK, S4S 3A4",2,1.0,0,1,1,0,1,910,0,0,0,0,1,0,0,0,0,0,0,0,1,0,1,0,0,0,0,0,0,0,0,0,0,0,50.412692500000006,-104.6214497
227,849,"4100 Retallack Street, Regina, SK, S4S 3C3",1,1.0,0,1,1,0,1,650,0,0,0,0,1,0,0,0,0,0,0,0,1,0,1,0,0,0,0,0,0,0,0,0,0,0,50.41365395,-104.62285226699895
228,1154,"4040 Rae Street, Regina, SK, S4S 3A3",2,1.0,0,1,1,0,1,910,0,0,0,0,1,0,0,0,0,0,0,0,1,0,1,0,0,0,0,0,0,0,0,0,0,0,50.414606500000005,-104.6213641
229,1154,"4020 Robinson Street, Regina, SK, S4S 3C9",2,1.0,0,1,1,0,1,720,0,0,0,0,1,0,0,0,0,0,0,0,1,0,1,0,0,0,0,0,0,0,0,0,0,0,50.414716549999994,-104.62429132983478
230,854,"3854 Rae Street, Regina, SK, S4S 3A1",1,1.0,0,1,1,0,1,480,0,0,0,0,1,0,0,0,0,0,0,0,1,0,1,0,0,0,0,0,0,0,0,0,0,0,50.41764875,-104.62137275
231,999,"4030 Rae Street, Regina, SK, S4S 3A3",2,1.0,0,1,1,0,1,910,0,0,0,0,1,0,0,0,0,0,0,0,1,0,1,0,0,0,0,0,0,0,0,0,0,0,50.41481685,-104.6214279
232,864,"1538 Alexandra Street, Regina, SK, S4T 4N9",1,1.0,0,1,1,0,1,480,0,0,1,0,1,0,0,0,0,0,0,0,1,0,1,1,0,0,0,0,0,0,0,0,0,0,50.454023750000005,-104.64412339990409
233,1104,"1520 Alexandra Street, Regina, SK, S4T 4N9",2,1.0,0,1,1,0,1,880,0,0,0,0,1,0,0,0,0,0,0,0,1,0,1,0,0,0,0,0,0,0,0,0,0,0,50.4544281,-104.64420945
234,1154,"2821 Parliament Ave, Regina, SK, S4S 2L1",2,1.0,0,1,1,0,1,910,0,0,0,0,1,0,0,0,0,0,0,0,1,0,1,0,0,0,0,0,0,0,0,0,0,0,50.41512615,-104.62167479979166
235,734,"2924 Parliament Ave, Regina, SK, S4S 2L4",1,1.0,0,1,1,0,1,320,0,0,0,0,1,0,0,0,0,0,0,0,1,0,1,0,0,0,0,0,0,0,0,0,0,0,50.4157689,-104.62332042492562
236,994,"4150 Rae Street, Regina, SK, S4S 3A4",1,1.0,0,1,1,0,1,675,0,0,0,0,1,0,0,0,0,0,0,0,1,0,1,0,0,0,0,0,0,0,0,0,0,0,50.41286435,-104.6214253
237,1030,"2240 Robinson Street, Regina, SK, S4T 2P9",2,1.0,0,1,1,0,1,870,0,1,0,0,1,0,0,0,0,0,0,0,1,0,1,1,0,0,0,0,0,0,0,0,0,0,50.44325025,-104.62445604999999
238,850,"2175  Rae Street, Regina, SK, S4T 2E8",1,1.0,0,1,1,0,1,380,0,1,0,0,1,0,0,0,0,0,0,0,1,0,1,1,0,0,0,0,0,0,0,0,0,0,50.444161449999996,-104.6206538
239,1285,"3928 Green Falls Drive, Regina, SK, S4V 3M1",2,1.0,0,1,1,0,1,840,0,1,0,0,1,0,0,0,0,0,0,0,0,1,1,0,1,0,0,0,1,1,1,0,1,0,50.41547775,-104.5155892367307
240,1319,"75 Cavendish St., Regina, SK, S4N 5B9",3,1.5,0,0,0,1,1,1047,0,0,1,0,0,0,0,0,0,1,0,1,1,0,1,0,1,0,0,0,0,0,0,0,1,1,50.4618391,-104.5509091
241,725,"3955 Robinson Street, Regina, SK, S4S 3C7",1,1.0,0,1,1,0,1,480,0,0,0,0,1,0,0,0,0,0,0,0,1,0,1,0,0,0,0,0,0,0,0,0,0,0,50.41608755,-104.6235269
242,1174,"4140 Rae Street, Regina, SK, S4S 3A4",2,1.0,0,1,1,0,1,910,0,0,0,0,1,0,0,0,0,0,0,0,1,0,1,0,0,0,0,0,0,0,0,0,0,0,50.413030000000006,-104.6213994750627
243,1154,"4130 Rae Street, Regina, SK, S4S 3A4",2,1.0,0,1,1,0,1,910,0,0,0,0,1,0,0,0,0,0,0,0,1,0,1,0,0,0,0,0,0,0,0,0,0,0,50.41316365,-104.62144520000001
244,1074,"4029 Retallack Street, Regina, SK, S4S 3C2",2,1.0,0,1,1,0,1,910,0,0,0,0,1,0,0,0,0,0,0,0,1,0,1,0,0,0,0,0,0,0,0,0,0,0,50.414409449999994,-104.62208809996719
245,849,"3955 Retallack Street, Regina, SK, S4S 3C1",1,1.0,0,1,1,0,1,675,0,0,0,0,1,0,0,0,0,0,0,0,1,0,1,0,0,0,0,0,0,0,0,0,0,0,50.416090800000006,-104.62208215000001
246,1074,"3918 Rae Street, Regina, SK, S4S 3A2",2,1.0,0,1,1,0,1,910,0,0,0,0,1,0,0,0,0,0,0,0,1,0,1,0,0,0,0,0,0,0,0,0,0,0,50.41670755,-104.62139782519986
247,1684,"68 Rae Street, Regina, SK, S4S 3A4",2,1.0,0,0,0,0,1,1848,0,0,0,0,0,0,0,0,1,0,0,0,1,0,1,0,0,0,0,0,0,0,0,0,0,0,50.4209589,-104.6211505
248,1014,"4049 Retallack Street, Regina, SK, S4S 3C2",1,1.0,0,1,1,0,1,675,0,0,0,0,1,0,0,0,0,0,0,0,1,0,1,0,0,0,0,0,0,0,0,0,0,0,50.41399765,-104.62209222509608
249,994,"4120 Retallack Street, Regina, SK, S4S 3C3",1,1.0,0,1,1,0,1,675,0,0,0,0,1,0,0,0,0,0,0,0,1,0,1,0,0,0,0,0,0,0,0,0,0,0,50.413219049999995,-104.62288207499995
250,1074,"2935 Parliament Avenue, Regina, SK, S4S 2L3",2,1.0,0,1,1,0,1,910,0,0,0,0,1,0,0,0,0,0,0,0,1,0,1,0,0,0,0,0,0,0,0,0,0,0,50.41512295,-104.62356865000001
251,1154,"2805 Parliament Ave, Regina, SK, S4S 2L1",2,1.0,0,1,1,0,1,910,0,0,0,0,1,0,0,0,0,0,0,0,1,0,1,0,0,0,0,0,0,0,0,0,0,0,50.41512965,-104.62132979967262
252,854,"4150 Rae Street, Regina, SK, S4S 3A4",1,1.0,0,1,1,0,1,480,0,0,0,0,1,0,0,0,0,0,0,0,1,0,1,0,0,0,0,0,0,0,0,0,0,0,50.41286435,-104.6214253
253,1154,"3930 Rae Street, Regina, SK, S4S 3A2",2,1.0,0,1,1,0,1,910,0,0,0,0,1,0,0,0,0,0,0,0,1,0,1,0,0,0,0,0,0,0,0,0,0,0,50.41650565,-104.6213371
254,999,"4150 Rae Street, Regina, SK, S4S 3A4",2,1.0,0,1,1,0,1,910,0,0,0,0,1,0,0,0,0,0,0,0,1,0,1,0,0,0,0,0,0,0,0,0,0,0,50.41286435,-104.6214253
255,1134,"2121 Smith Street, Regina, SK, S4P 2P3",2,1.0,0,1,1,0,1,910,0,0,0,0,1,0,0,0,0,0,0,0,1,0,1,1,0,0,0,0,0,0,0,0,0,0,50.44504285,-104.61474652432565
256,794,"4020 Robinson Street, Regina, SK, S4S 3C9",1,1.0,0,1,1,0,1,675,0,0,0,0,1,0,0,0,0,0,0,0,1,0,1,0,0,0,0,0,0,0,0,0,0,0,50.414716549999994,-104.62429132983478
257,849,"3954 Retallack Street, Regina, SK, S4S 3B9",1,1.0,0,1,1,0,1,675,0,0,0,0,1,0,0,0,0,0,0,0,1,0,1,0,0,0,0,0,0,0,0,0,0,0,50.41609455,-104.6228215
258,725,"4020 Robinson Street, Regina, SK, S4S 3C9",1,1.0,0,1,1,0,1,320,0,0,0,0,1,0,0,0,0,0,0,0,1,0,1,0,0,0,0,0,0,0,0,0,0,0,50.414716549999994,-104.62429132983478
259,1074,"4039 Retallack Street, Regina, SK, S4S 3C2",2,1.0,0,1,1,0,1,910,0,0,0,0,1,0,0,0,0,0,0,0,1,0,1,0,0,0,0,0,0,0,0,0,0,0,50.41420275,-104.62208777550259
260,1154,"4076 Rae Street, Regina, SK, S4S 3A3",2,1.0,0,1,1,0,1,910,0,0,0,0,1,0,0,0,0,0,0,0,1,0,1,0,0,0,0,0,0,0,0,0,0,0,50.41399065,-104.62140995
261,754,"2935 Parliament Avenue, Regina, SK, S4S 2L3",1,1.0,0,1,1,0,1,320,0,0,0,0,1,0,0,0,0,0,0,0,1,0,1,0,0,0,0,0,0,0,0,0,0,0,50.41512295,-104.62356865000001
262,734,"3025 Parliament Avenue, Regina, SK, S4S 2L6",1,1.0,0,1,1,0,1,320,0,0,0,0,1,0,0,0,0,0,0,0,1,0,1,0,0,0,0,0,0,0,0,0,0,0,50.41514015,-104.6247857
263,864,"1544 Alexandra Street, Regina, SK, S4T 4N9",1,1.0,0,1,1,0,1,480,0,0,0,0,1,0,0,0,0,0,0,0,1,0,1,0,0,0,0,0,0,0,0,0,0,0,50.453813749999995,-104.64413095
264,994,"2805 Parliament Ave, Regina, SK, S4S 2L1",1,1.0,0,1,1,0,1,675,0,0,0,0,1,0,0,0,0,0,0,0,1,0,1,0,0,0,0,0,0,0,0,0,0,0,50.41512965,-104.62132979967262
265,734,"4019 Retallack Street, Regina, SK, S4S 3C2",1,1.0,0,1,1,0,1,320,0,0,0,0,1,0,0,0,0,0,0,0,1,0,1,0,0,0,0,0,0,0,0,0,0,0,50.4146092,-104.62205065
266,854,"4049 Retallack Street, Regina, SK, S4S 3C2",1,1.0,0,1,1,0,1,480,0,0,0,0,1,0,0,0,0,0,0,0,1,0,1,0,0,0,0,0,0,0,0,0,0,0,50.41399765,-104.62209222509608
267,1154,"3025 Parliament Avenue, Regina, SK, S4S 2L6",2,1.0,0,1,1,0,1,720,0,0,0,0,1,0,0,0,0,0,0,0,1,0,1,0,0,0,0,0,0,0,0,0,0,0,50.41514015,-104.6247857
268,725,"3955 Retallack Street, Regina, SK, S4S 3C1",1,1.0,0,1,1,0,1,480,0,0,0,0,1,0,0,0,0,0,0,0,1,0,1,0,0,0,0,0,0,0,0,0,0,0,50.416090800000006,-104.62208215000001
269,854,"3954 Rae Street, Regina, SK, S4S 3A2",1,1.0,0,1,1,0,1,480,0,0,0,0,1,0,0,0,0,0,0,0,1,0,1,0,0,0,0,0,0,0,0,0,0,0,50.4160886,-104.62137447494865
270,974,"1544 Alexandra Street, Regina, SK, S4T 4N9",1,1.0,0,1,1,0,1,650,0,0,0,0,1,0,0,0,0,0,0,0,1,0,1,0,0,0,0,0,0,0,0,0,0,0,50.453813749999995,-104.64413095
271,1134,"2155 Rose Street, Regina, SK, S4P 2A5",2,1.0,0,1,1,0,1,910,0,0,0,0,1,0,0,0,0,0,0,0,1,0,1,0,0,0,0,0,0,0,0,0,0,0,50.4445512,-104.60752017514639
272,849,"4039 Retallack Street, Regina, SK, S4S 3C2",1,1.0,0,1,1,0,1,675,0,0,0,0,1,0,0,0,0,0,0,0,1,0,1,0,0,0,0,0,0,0,0,0,0,0,50.41420275,-104.62208777550259
273,949,"4114 Rae Street, Regina, SK, S4S 3A4",2,1.0,0,1,1,0,1,910,0,0,0,0,1,0,0,0,0,0,0,0,1,0,1,0,0,0,0,0,0,0,0,0,0,0,50.4134437,-104.62141052473572
274,814,"3864 Rae Street, Regina, SK, S4S 3A1",1,1.0,0,1,1,0,1,675,0,0,0,0,1,0,0,0,0,0,0,0,1,0,1,0,0,0,0,0,0,0,0,0,0,0,50.417431300000004,-104.62138427527586
275,935,"505 Rose St, Regina, SK S4R 1Z4, Canada",2,1.0,0,1,1,1,0,800,0,1,0,0,1,0,0,0,0,0,0,0,0,0,1,1,0,0,0,0,0,0,0,0,1,0,50.4788692,-104.6079614
276,1300,"331  Broad Street North, Regina, SK, S4R 2X8",2,2.0,0,1,1,0,1,832,0,1,0,0,1,0,0,0,0,0,0,0,1,0,1,1,0,0,0,0,0,0,0,0,1,0,50.4907451,-104.6061213
277,938,"22-41 Munroe Pl., Regina, SK, S4S 6A7",2,1.0,0,1,1,0,1,860,0,0,1,0,1,0,0,0,0,0,0,1,1,0,1,1,0,1,0,0,0,0,0,1,1,0,50.4143164,-104.6015627
278,949,"4114 Rae Street, Regina, SK, S4S 3A4",2,1.0,0,1,1,0,1,910,0,0,0,0,1,0,0,0,0,0,0,0,1,0,1,0,0,0,0,0,0,0,0,0,0,0,50.4134437,-104.62141052473572
279,854,"4029 Retallack Street, Regina, SK, S4S 3C2",1,1.0,0,1,1,0,1,480,0,0,0,0,1,0,0,0,0,0,0,0,1,0,1,0,0,0,0,0,0,0,0,0,0,0,50.414409449999994,-104.62208809996719
280,999,"4122 Rae Street, Regina, SK, S4S 3A4",2,1.0,0,1,1,0,1,910,0,0,0,0,1,0,0,0,0,0,0,0,1,0,1,0,0,0,0,0,0,0,0,0,0,0,50.413304350000004,-104.62140717471362
281,699,"2835 Parliament Ave, Regina, SK, S4S 2L1",1,1.0,0,1,1,0,1,320,0,0,0,0,1,0,0,0,0,0,0,0,1,0,1,0,0,0,0,0,0,0,0,0,0,0,50.4151363,-104.6221331
282,999,"2915 Parliament Ave, Regina, SK, S4S 2L3",2,1.0,0,1,1,0,1,720,0,0,0,0,1,0,0,0,0,0,0,0,1,0,1,0,0,0,0,0,0,0,0,0,0,0,50.4151487,-104.62293708668133
283,994,"4114 Rae Street, Regina, SK, S4S 3A4",1,1.0,0,1,1,0,1,675,0,0,0,0,1,0,0,0,0,0,0,0,1,0,1,0,0,0,0,0,0,0,0,0,0,0,50.4134437,-104.62141052473572
284,1154,"3026 Parliament Avenue, Regina, SK, S4S 2L5",2,1.0,0,1,1,0,1,910,0,0,0,0,1,0,0,0,0,0,0,0,1,0,1,0,0,0,0,0,0,0,0,0,0,0,50.4157563,-104.62477985040613
285,854,"3940 Retallack Street, Regina, SK, S4S 3B9",1,1.0,0,1,1,0,1,480,0,0,0,0,1,0,0,0,0,0,0,0,1,0,1,0,0,0,0,0,0,0,0,0,0,0,50.4163001,-104.6228324
286,799,"2935 Parliament Avenue, Regina, SK, S4S 2L3",1,1.0,0,1,1,0,1,675,0,0,0,0,1,0,0,0,0,0,0,0,1,0,1,0,0,0,0,0,0,0,0,0,0,0,50.41512295,-104.62356865000001
287,754,"3918 Rae Street, Regina, SK, S4S 3A2",1,1.0,0,1,1,0,1,480,0,0,0,0,1,0,0,0,0,0,0,0,1,0,1,0,0,0,0,0,0,0,0,0,0,0,50.41670755,-104.62139782519986
288,754,"3929 Retallack Street, Regina, SK, S4S 3C1",1,1.0,0,1,1,0,1,480,0,0,0,0,1,0,0,0,0,0,0,0,1,0,1,0,0,0,0,0,0,0,0,0,0,0,50.4165005,-104.62210295
289,814,"2915 Parliament Ave, Regina, SK, S4S 2L3",1,1.0,0,1,1,0,1,675,0,0,0,0,1,0,0,0,0,0,0,0,1,0,1,0,0,0,0,0,0,0,0,0,0,0,50.4151487,-104.62293708668133
290,994,"4122 Rae Street, Regina, SK, S4S 3A4",1,1.0,0,1,1,0,1,675,0,0,0,0,1,0,0,0,0,0,0,0,1,0,1,0,0,0,0,0,0,0,0,0,0,0,50.413304350000004,-104.62140717471362
291,799,"3025 Parliament Avenue, Regina, SK, S4S 2L6",1,1.0,0,1,1,0,1,675,0,0,0,0,1,0,0,0,0,0,0,0,1,0,1,0,0,0,0,0,0,0,0,0,0,0,50.41514015,-104.6247857
292,799,"3918 Rae Street, Regina, SK, S4S 3A2",1,1.0,0,1,1,0,1,675,0,0,0,0,1,0,0,0,0,0,0,0,1,0,1,0,0,0,0,0,0,0,0,0,0,0,50.41670755,-104.62139782519986
293,799,"3026 Parliament Avenue, Regina, SK, S4S 2L5",1,1.0,0,1,1,0,1,675,0,0,0,0,1,0,0,0,0,0,0,0,1,0,1,0,0,0,0,0,0,0,0,0,0,0,50.4157563,-104.62477985040613
294,794,"3941 Retallack Street, Regina, SK, S4S 3C1",1,1.0,0,1,1,0,1,675,0,0,0,0,1,0,0,0,0,0,0,0,1,0,1,0,0,0,0,0,0,0,0,0,0,0,50.4162949,-104.62209419999999
295,854,"4030 Rae Street, Regina, SK, S4S 3A3",1,1.0,0,1,1,0,1,480,0,0,0,0,1,0,0,0,0,0,0,0,1,0,1,0,0,0,0,0,0,0,0,0,0,0,50.41481685,-104.6214279
296,814,"4030 Rae Street, Regina, SK, S4S 3A3",1,1.0,0,1,1,0,1,675,0,0,0,0,1,0,0,0,0,0,0,0,1,0,1,0,0,0,0,0,0,0,0,0,0,0,50.41481685,-104.6214279
297,994,"4029 Retallack Street, Regina, SK, S4S 3C2",1,1.0,0,1,1,0,1,675,0,0,0,0,1,0,0,0,0,0,0,0,1,0,1,0,0,0,0,0,0,0,0,0,0,0,50.414409449999994,-104.62208809996719
298,849,"2835 Parliament Ave, Regina, SK, S4S 2L1",1,1.0,0,1,1,0,1,675,0,0,0,0,1,0,0,0,0,0,0,0,1,0,1,0,0,0,0,0,0,0,0,0,0,0,50.4151363,-104.6221331
299,699,"2155 Rose Street, Regina, SK, S4P 2A5",1,1.0,0,1,1,0,1,320,0,0,0,0,1,0,0,0,0,0,0,0,1,0,1,0,0,0,0,0,0,0,0,0,0,0,50.4445512,-104.60752017514639
300,799,"3954 Rae Street, Regina, SK, S4S 3A2",1,1.0,0,1,1,0,1,675,0,0,0,0,1,0,0,0,0,0,0,0,1,0,1,0,0,0,0,0,0,0,0,0,0,0,50.4160886,-104.62137447494865
301,849,"4110 Rae Street, Regina, SK, S4S 3A4",1,1.0,0,1,1,0,1,675,0,0,0,0,1,0,0,0,0,0,0,0,1,0,1,0,0,0,0,0,0,0,0,0,0,0,50.41362155,-104.6214210747431
302,854,"4110 Rae Street, Regina, SK, S4S 3A4",1,1.0,0,1,1,0,1,480,0,0,0,0,1,0,0,0,0,0,0,0,1,0,1,0,0,0,0,0,0,0,0,0,0,0,50.41362155,-104.6214210747431
303,854,"3900 Rae Street, Regina, SK, S4S 3A2",1,1.0,0,1,1,0,1,480,0,0,0,0,1,0,0,0,0,0,0,0,1,0,1,0,0,0,0,0,0,0,0,0,0,0,50.4169062,-104.6213814
304,854,"4076 Rae Street, Regina, SK, S4S 3A3",1,1.0,0,1,1,0,1,480,0,0,0,0,1,0,0,0,0,0,0,0,1,0,1,0,0,0,0,0,0,0,0,0,0,0,50.41399065,-104.62140995
305,974,"1520 Alexandra Street, Regina, SK, S4T 4N9",1,1.0,0,1,1,0,1,650,0,0,0,0,1,0,0,0,0,0,0,0,1,0,1,0,0,0,0,0,0,0,0,0,0,0,50.4544281,-104.64420945
306,889,"3900 Rae Street, Regina, SK, S4S 3A2",1,1.0,0,1,1,0,1,675,0,0,0,0,1,0,0,0,0,0,0,0,1,0,1,0,0,0,0,0,0,0,0,0,0,0,50.4169062,-104.6213814
307,814,"2924 Parliament Ave, Regina, SK, S4S 2L4",1,1.0,0,1,1,0,1,675,0,0,0,0,1,0,0,0,0,0,0,0,1,0,1,0,0,0,0,0,0,0,0,0,0,0,50.4157689,-104.62332042492562
308,799,"3929 Retallack Street, Regina, SK, S4S 3C1",1,1.0,0,1,1,0,1,675,0,0,0,0,1,0,0,0,0,0,0,0,1,0,1,0,0,0,0,0,0,0,0,0,0,0,50.4165005,-104.62210295
309,814,"4076 Rae Street, Regina, SK, S4S 3A3",1,1.0,0,1,1,0,1,675,0,0,0,0,1,0,0,0,0,0,0,0,1,0,1,0,0,0,0,0,0,0,0,0,0,0,50.41399065,-104.62140995
310,849,"4019 Retallack Street, Regina, SK, S4S 3C2",1,1.0,0,1,1,0,1,675,0,0,0,0,1,0,0,0,0,0,0,0,1,0,1,0,0,0,0,0,0,0,0,0,0,0,50.4146092,-104.62205065
311,854,"3941 Retallack Street, Regina, SK, S4S 3C1",1,1.0,0,1,1,0,1,480,0,0,0,0,1,0,0,0,0,0,0,0,1,0,1,0,0,0,0,0,0,0,0,0,0,0,50.4162949,-104.62209419999999
312,725,"2121 Smith Street, Regina, SK, S4P 2P3",1,1.0,0,1,1,0,1,320,0,0,0,0,1,0,0,0,0,0,0,0,1,0,1,1,0,0,0,0,0,0,0,0,0,0,50.44504285,-104.61474652432565
313,699,"1520 Alexandra Street, Regina, SK, S4T 4N9",1,1.0,0,1,1,0,1,320,0,0,0,0,1,0,0,0,0,0,0,0,1,0,1,0,0,0,0,0,0,0,0,0,0,0,50.4544281,-104.64420945
314,799,"3854 Rae Street, Regina, SK, S4S 3A1",1,1.0,0,1,1,0,1,675,0,0,0,0,1,0,0,0,0,0,0,0,1,0,1,0,0,0,0,0,0,0,0,0,0,0,50.41764875,-104.62137275
315,849,"3525 Avonhurst Dr, Regina, SK, S4R 3K2",2,1.0,0,1,1,0,1,763,0,0,0,0,1,0,0,0,0,0,0,0,1,0,1,1,0,0,0,0,0,0,0,0,0,1,50.4707985,-104.6182456
316,1319,"75 Cavendish St., Regina, SK, S4N 5B9",3,1.5,0,0,0,1,1,1047,0,0,1,0,0,0,0,0,0,1,0,1,1,0,1,0,1,0,0,0,0,0,0,0,1,1,50.4618391,-104.5509091
317,799,"1424 Victoria Ave, Regina, SK, S4P 0P3",1,1.0,0,1,1,0,1,520,0,0,0,0,1,0,0,0,0,0,0,0,1,0,1,0,0,0,0,0,0,0,0,0,0,0,50.4474552,-104.6015730253819
318,935,"505 Rose St, Regina, SK S4R 1Z4, Canada",2,1.0,0,1,1,1,0,800,0,1,0,0,1,0,0,0,0,0,0,0,0,0,1,1,0,0,0,0,0,0,0,0,1,0,50.4788692,-104.6079614
319,814,"3864 Rae Street, Regina, SK, S4S 3A1",1,1.0,0,1,1,0,1,675,0,0,0,0,1,0,0,0,0,0,0,0,1,0,1,0,0,0,0,0,0,0,0,0,0,0,50.417431300000004,-104.62138427527586
320,854,"801 Grey Street, Regina, SK, S4T 5G8",1,1.0,0,1,1,0,1,480,0,0,0,0,1,0,0,0,0,0,0,0,1,0,1,0,0,0,0,0,0,0,0,0,0,0,50.4654359,-104.6550057059113
321,814,"3864 Rae Street, Regina, SK, S4S 3A1",1,1.0,0,1,1,0,1,675,0,0,0,0,1,0,0,0,0,0,0,0,1,0,1,0,0,0,0,0,0,0,0,0,0,0,50.417431300000004,-104.62138427527586
322,675,"2821 Parliament Ave, Regina, SK, S4S 2L1",1,1.0,0,1,1,0,1,320,0,0,0,0,1,0,0,0,0,0,0,0,1,0,1,0,0,0,0,0,0,0,0,0,0,0,50.41512615,-104.62167479979166
323,994,"2821 Parliament Ave, Regina, SK, S4S 2L1",1,1.0,0,1,1,0,1,675,0,0,0,0,1,0,0,0,0,0,0,0,1,0,1,0,0,0,0,0,0,0,0,0,0,0,50.41512615,-104.62167479979166
324,879,"2121 Smith Street, Regina, SK, S4P 2P3",1,1.0,0,1,1,0,1,675,0,0,0,0,1,0,0,0,0,0,0,0,1,0,1,1,0,0,0,0,0,0,0,0,0,0,50.44504285,-104.61474652432565
325,854,"3864 Rae Street, Regina, SK, S4S 3A1",1,1.0,0,1,1,0,1,480,0,0,0,0,1,0,0,0,0,0,0,0,1,0,1,0,0,0,0,0,0,0,0,0,0,0,50.417431300000004,-104.62138427527586
326,1189,"22-41 Munroe Pl., Regina, SK, S4S 6A7",2,1.0,0,1,1,1,1,860,0,1,1,0,1,0,0,0,0,0,0,1,1,0,1,1,0,1,0,0,0,0,0,1,1,0,50.4143164,-104.6015627
327,1300,"S4P3y8, Canada",1,1.0,0,1,1,1,0,632,1,0,0,0,0,0,1,0,0,0,0,0,1,1,1,0,1,0,0,0,0,0,0,0,1,0,61.0666922,-107.991707
328,1100,"Blake Cres, Regina, SK S4X, Canada",2,1.0,0,0,0,1,0,875,0,1,0,0,0,0,0,0,0,1,0,0,1,1,1,0,1,0,0,0,0,0,0,0,1,0,50.508181,-104.660468
329,1200,"10 Ave W, Melville, SK S0A 2P0, Canada",3,1.0,1,1,1,1,0,950,1,0,0,0,0,0,0,0,1,0,0,0,1,1,1,1,0,0,0,0,0,0,0,0,0,1,50.9361739,-102.8061922
330,940,"331  Broad Street North, Regina, SK, S4R 2X8",1,1.0,0,1,1,0,1,659,0,1,0,0,1,0,0,0,0,0,0,0,1,0,1,1,0,0,0,0,0,0,0,0,1,0,50.4907451,-104.6061213
331,1250,"Froom Crescent, Regina, SK S4N 1B7, Canada",2,1.0,0,1,1,2,0,1050,0,1,0,0,0,0,0,0,1,0,1,1,1,0,1,1,0,0,0,0,0,0,0,0,1,1,50.445569,-104.5677872
332,915,"2178 Osler St, Regina, SK S4P 1W6, Canada",2,1.0,0,1,1,1,0,900,0,1,0,0,1,0,0,0,0,0,0,0,0,0,1,1,0,1,0,0,0,0,0,1,1,0,50.444187850000006,-104.60530645079092
333,1085,"2131 Angus Street, Regina, SK, S4T 2A1",2,1.0,0,1,1,0,1,875,0,1,0,0,1,0,0,0,0,0,0,0,1,0,1,1,0,0,0,0,0,0,0,0,1,0,50.44490885,-104.6192048856471
334,1690,", S4N 1L6, Regina, SK",3,1.5,0,0,0,3,0,1100,0,1,0,0,0,0,0,0,1,0,0,0,1,1,1,1,0,0,0,0,0,0,0,0,0,1,50.4193012,-104.58222594380054
335,800,"S4S4G2, Canada",1,1.0,0,1,1,1,0,700,0,0,0,0,1,0,0,0,0,0,0,0,0,0,1,1,0,0,0,0,0,0,0,0,0,0,61.0666922,-107.991707
336,850,"S4T 2G 3, Canada",1,1.0,0,1,1,1,0,700,0,1,0,0,1,0,0,0,0,0,0,0,0,0,1,1,0,0,0,0,0,0,0,0,0,0,50.4416,-104.6208
337,600,"S4X0C2, Canada",1,1.0,1,1,0,1,0,700,1,0,0,0,0,1,0,0,0,0,1,1,0,1,1,1,1,0,0,0,0,0,0,0,0,1,61.0666922,-107.991707
338,1445,"5200 Parliament Ave, Regina, SK S4W 0R5, Canada",2,2.0,0,1,1,2,1,857,0,1,0,1,1,0,0,0,0,0,0,0,0,1,1,0,1,0,0,0,0,0,0,0,1,0,50.418041200000005,-104.65552856002125
339,1750,"14 Milford Crescent, Regina, SK S4N 1K7, Canada",3,2.0,0,0,0,3,1,1300,0,1,0,1,0,0,0,0,1,0,0,0,1,1,1,1,1,0,0,0,0,0,0,0,1,1,50.45371175,-104.55165125093453
340,1000,"2140 9th Ave N, Regina, SK S4R 7Z8, Canada",2,1.0,0,1,1,1,0,840,0,1,1,0,1,0,0,0,0,0,0,0,0,1,1,1,0,1,1,0,0,0,0,0,1,0,50.4846363,-104.61178290044876
341,900,"2140 9th Ave N, Regina, SK S4R 7Z8, Canada",1,1.0,0,1,1,1,0,730,0,1,1,0,1,0,0,0,0,0,0,0,0,0,1,1,0,1,1,0,0,0,0,0,1,0,50.4846363,-104.61178290044876
342,800,"240 13 St, Weyburn, SK S4H 1L2, Canada",2,1.0,1,1,1,2,0,780,0,1,0,0,0,1,0,0,0,0,0,0,0,0,1,1,1,0,0,0,0,0,0,0,0,1,49.6624123,-103.8398222
343,900,"2250 Rose St., Regina, SK, S4P 2A7",2,1.0,0,1,1,0,0,900,0,0,0,0,1,0,0,0,0,0,0,0,1,0,1,1,0,0,0,0,0,0,0,0,0,0,50.44296875,-104.6083311
344,1750,"S4H 0A3, Canada",3,2.0,1,1,1,3,1,1750,0,0,0,1,0,0,0,0,1,0,1,1,1,0,0,1,1,0,0,0,0,0,0,0,1,1,61.0666922,-107.991707
345,1285,"2275 McIntyre St, Regina, SK S4P 2S1, Canada",2,2.0,1,1,1,2,0,1400,0,1,0,0,0,0,1,0,0,0,0,0,1,1,1,0,1,0,0,0,1,0,0,0,1,0,50.4751379,-104.6166143
346,450,"141 6 St, Weyburn, SK S4H 1B1, Canada",1,1.0,1,1,1,1,1,200,1,1,0,0,1,0,0,0,0,0,1,0,0,0,1,1,0,0,0,0,0,0,0,0,0,0,49.662765,-103.849478
347,700,"1765 Hamilton St, Regina, SK S4P 2B4, Canada",1,1.0,0,1,1,0,0,350,0,0,0,0,1,0,0,0,0,0,0,0,1,0,1,1,0,0,0,0,0,0,0,0,0,0,50.4788688,-104.6093834
348,1285,"2275 McIntyre St, Regina, SK S4P 2S1, Canada",2,2.0,1,1,1,2,0,1400,0,1,1,0,0,0,1,0,0,0,0,0,1,1,1,0,1,0,0,0,1,0,0,0,1,0,50.4751379,-104.6166143
349,450,"Harvey St, Regina, SK S4N 2M7, Canada",1,1.0,0,1,1,1,0,90,0,0,0,0,0,0,0,0,1,0,0,0,1,0,1,0,0,0,0,0,0,0,0,0,0,0,50.443801699999995,-104.5778173650169
350,1950,"5321 Squires Rd, Regina, SK S4W 0L8, Canada",3,2.5,0,0,0,2,1,1475,0,0,0,0,0,0,0,0,1,0,0,0,1,1,1,0,1,0,0,0,0,0,0,0,0,1,50.4099369,-104.65777700033125
351,1900,"Green Jade Ln, Regina, SK S4V 3K7",3,2.0,0,0,0,1,1,1044,1,1,0,0,0,0,0,0,0,1,0,0,1,1,1,0,1,0,0,0,0,0,0,0,0,1,50.4251531,-104.5138746
352,715,"25 Shaw St, Regina, SK S4R 3M5, Canada",1,1.0,0,1,1,1,0,800,0,0,1,0,1,0,0,0,0,0,0,0,0,0,1,1,0,0,0,0,0,0,0,1,0,0,50.48115585,-104.6215399
353,1350,"2727 Victoria Ave, Regina, SK S4T 1K4, Canada",1,1.5,0,1,1,1,0,1193,0,1,0,1,0,0,1,0,0,0,0,0,1,0,1,0,1,0,0,0,1,0,0,0,1,0,50.4468829,-104.62040705
354,750,"2104  14th Ave, Regina, SK, S4P 0X6",1,1.0,0,1,1,0,1,343,0,0,0,0,1,0,0,0,0,0,0,0,1,0,1,1,0,0,0,0,0,0,0,0,0,0,50.4440296,-104.5688047
355,849,"3525 Avonhurst Dr, Regina, SK, S4R 3K2",2,1.0,0,1,1,0,1,763,0,0,0,0,1,0,0,0,0,0,0,0,1,0,1,1,0,0,0,0,0,0,0,0,0,1,50.4707985,-104.6182456
356,940,"331  Broad Street North, Regina, SK, S4R 2X8",1,1.0,0,1,1,0,1,659,0,1,0,0,1,0,0,0,0,0,0,0,1,0,1,1,0,0,0,0,0,0,0,0,1,0,50.4907451,-104.6061213
357,1319,"75 Cavendish St., Regina, SK, S4N 5B9",3,1.5,0,0,0,1,1,1047,0,0,1,0,0,0,0,0,0,1,0,1,1,0,1,0,1,0,0,0,0,0,0,0,1,1,50.4618391,-104.5509091
358,1200,"2190 Broder St, Regina, SK S4N 3S4, Canada",2,1.0,0,0,0,2,0,900,0,1,0,0,0,1,0,0,0,0,0,0,1,1,1,0,1,0,0,0,0,0,0,0,0,1,50.44410095,-104.5911636932137
359,1600,"3364 Grant Rd, Regina, SK S4S 5H5",3,2.0,1,1,1,1,1,1200,1,0,1,0,0,0,0,0,0,1,1,1,1,0,1,1,1,0,0,0,0,0,0,0,0,0,50.4095168,-104.59612389426903
360,1319,"75 Cavendish St., Regina, SK, S4N 5B9",3,1.5,0,0,0,1,1,1047,0,0,1,0,0,0,0,0,0,1,0,1,1,0,1,0,1,0,0,0,0,0,0,0,1,1,50.4618391,-104.5509091
361,1200,"31 Rodenbush Dr, Regina, SK S4R 7W7, Canada",1,1.0,1,1,1,1,0,730,1,1,0,0,0,0,1,0,0,0,0,1,0,1,1,1,0,0,0,0,0,0,0,0,1,0,50.4973958,-104.5987942
362,1900,"Regina Airport, 5201 Regina Ave #1, Regina, SK S4W 1B3, Canada",3,1.5,1,1,1,2,1,900,1,1,0,0,0,0,0,0,1,0,1,1,0,1,1,0,1,0,0,0,0,0,0,0,0,1,50.431511,-104.669575
363,1800,"1901 Victoria Ave, Regina, SK S4P 3R4, Canada",2,2.0,1,1,1,1,1,1350,1,1,0,0,0,0,1,0,0,0,1,1,0,1,1,0,1,1,1,0,1,0,0,1,1,0,50.44687345,-104.60826162515852
364,795,"2167 Angus St, Regina, SK S4T 2A1, Canada",1,1.0,0,0,1,1,0,650,0,1,0,0,0,0,1,0,0,0,0,0,1,0,1,0,1,0,0,0,0,0,0,0,1,0,50.444131549999994,-104.61920705
365,995,"2001 Cornwall St, Regina, SK S4P 3X9, Canada",1,1.0,0,1,1,1,0,654,0,1,0,0,1,0,0,0,0,0,0,0,1,0,1,1,0,0,0,0,1,1,0,0,0,0,50.4461824,-104.61187147178724
366,1000,"339A Montreal St, Regina, SK S4R 8N4, Canada",2,2.0,0,0,1,1,0,900,0,1,0,0,0,0,0,1,0,0,0,0,0,0,1,0,1,0,0,0,0,0,0,0,0,0,50.4839243,-104.5984601
367,1000,"339A Montreal St, Regina, SK S4R 8N4, Canada",2,2.0,0,0,1,1,0,900,0,1,0,0,0,0,0,1,0,0,0,0,0,0,1,0,1,0,0,0,0,0,0,0,0,0,50.4839243,-104.5984601
368,960,"2167 Angus St, Regina, SK S4T 2A1, Canada",2,1.0,0,0,1,1,0,750,0,1,0,0,0,0,1,0,0,0,0,0,1,0,1,0,1,0,0,0,0,0,0,1,1,0,50.444131549999994,-104.61920705
369,800,"Cameron St, Regina, SK S4T 2S9, Canada",2,1.0,0,0,0,0,0,900,0,0,0,0,0,0,0,0,1,0,0,0,0,0,1,0,1,0,0,0,0,0,0,0,0,1,50.4727292,-104.6254204
370,1400,"2315 116, Regina S4P 3Y8 SK, Canada",2,1.0,1,1,1,1,0,770,0,1,0,0,0,0,1,0,0,0,0,0,1,1,1,0,1,0,0,0,0,0,0,0,1,0,50.442058,-104.616185
371,1450,"S4T2N9, Canada",3,2.0,0,0,0,3,0,2400,0,0,0,1,0,0,0,0,1,0,0,0,1,1,1,1,1,0,0,0,0,0,0,0,0,1,61.0666922,-107.991707
372,1368,"1701 Horizons Way, Regina, SK, S4Y 0G5",3,2.0,0,0,1,1,1,949,0,1,0,0,1,0,0,0,0,0,0,0,1,1,1,0,1,0,0,0,1,1,0,0,1,0,50.455082,-104.7037566
373,1400,"2200 Francis St, Regina, SK S4N 2P5, Canada",2,1.0,1,1,1,1,0,900,0,1,0,0,0,0,0,1,0,0,0,0,1,1,1,1,0,0,0,0,0,0,0,0,0,1,50.44384675,-104.57964434901398
374,1000,"75 Gladstone Ave. N, Yorkton S3N 2A4 SK",2,1.5,0,0,0,2,0,740,0,0,0,0,0,0,0,0,1,0,0,0,1,1,1,1,0,0,0,0,0,0,0,0,0,1,51.2121384,-102.4744255
375,1100,"2053 Montague St, Regina, SK S4T 3J8, Canada",2,1.0,0,1,1,1,0,900,0,0,0,0,1,0,0,0,0,0,0,0,1,0,1,1,1,0,1,0,0,0,0,0,1,0,50.4460912,-104.62939718211634
376,1100,"235 King St, Regina, SK S4R 4H2, Canada",2,1.0,0,0,0,3,0,950,0,0,0,0,0,0,0,1,0,0,0,0,0,1,1,1,1,0,0,0,0,0,0,0,0,1,50.474833700000005,-104.63810464979875
377,765,"2131 Angus Street, Regina, SK, S4T 2A1",1,1.0,0,1,1,0,1,425,0,1,0,0,1,0,0,0,0,0,0,0,1,0,1,1,0,0,0,0,0,0,0,0,1,0,50.44490885,-104.6192048856471
378,1399,"4040 Gordon Rd., Regina, SK, S4S 6W2",2,1.0,1,1,1,1,1,900,0,1,1,0,1,0,0,0,0,0,0,1,1,0,1,1,0,1,0,0,1,1,0,0,1,0,50.40582875,-104.63973689846534
379,800,"176 2 Ave E, Melville, SK S0A 2P0, Canada",2,1.0,0,0,0,2,0,800,0,1,0,0,0,0,0,0,1,0,0,0,0,0,1,1,0,0,0,0,0,0,0,0,0,1,50.9263519,-102.8018586
380,950,"2948 Quinn Dr, Regina, SK S4P 2W1, Canada",2,1.0,0,0,1,2,1,950,0,0,0,0,0,1,0,0,0,0,0,0,1,1,1,1,0,0,0,0,0,0,0,0,0,1,50.4334282,-104.60030697170261
381,650,"119 Miles St, Kamsack, SK S0A 1S0, Canada",2,1.0,0,0,0,1,0,620,0,0,0,1,0,0,0,0,1,0,0,0,1,0,1,1,1,0,0,0,0,0,0,0,0,0,51.5593496,-101.8939114
382,1020,"26 Lorne Place, Regina, SK, S4R 8B3",2,1.0,0,1,1,0,1,743,0,1,0,0,1,0,0,0,0,0,0,0,1,1,1,1,0,0,0,0,0,0,0,0,1,0,50.484867,-104.6137247
383,825,"355  Northview Rd, Yorkton, SK, S3N 2X6",2,1.0,0,1,1,0,1,694,0,1,0,0,1,0,0,0,0,0,0,0,1,0,1,1,0,0,0,0,0,0,0,0,1,0,51.202979,-102.4873541
384,725,"2045 Wallace St, Regina, SK S4N 4A3, Canada",1,1.0,1,1,1,0,0,600,0,0,0,0,1,0,0,0,0,0,0,0,1,0,1,1,0,0,0,0,0,0,0,0,0,0,50.4462597,-104.593421225
385,900,"2051 Winnipeg St, Regina, SK S4P 1G7, Canada",2,1.0,0,0,0,1,0,800,0,0,0,0,0,1,0,0,0,0,0,0,1,0,1,0,1,0,0,0,0,0,0,0,0,0,50.4841356,-104.593859
386,1000,"2135 Halifax St, Regina, SK S4P 1V1, Canada",2,1.0,0,0,1,1,0,700,0,0,0,0,1,0,0,0,0,0,0,0,1,0,1,1,0,0,0,0,0,0,0,0,0,0,50.4770362,-104.6034845
387,1050,"Edgar St, Regina, SK S4N, Canada",2,2.0,0,0,0,2,0,850,0,1,0,0,1,0,0,0,0,0,0,0,1,1,1,0,1,0,0,0,0,0,0,0,1,1,50.455928,-104.588009
388,1295,"5501 Prefontaine Ave, Regina, SK, S4W 0S3",2,1.0,0,1,1,0,1,840,0,1,0,0,1,0,0,0,0,0,0,0,1,1,1,0,1,0,0,0,1,1,0,0,1,0,50.4125124,-104.6602563
389,800,"1840 St John St, Regina, SK S4P 1R9, Canada",2,1.0,0,1,1,1,0,700,0,0,0,0,0,0,1,0,0,0,0,0,1,0,0,1,0,0,0,0,0,0,0,0,0,1,50.4496312,-104.6022926011907
390,900,"2408 Rothwell St, Regina, SK S4N 2C7, Canada",2,1.0,0,1,1,1,0,900,0,1,1,0,1,0,0,0,0,0,0,0,1,0,0,1,0,0,0,0,0,0,0,0,1,0,50.44029645,-104.57116809952649
391,850,", Regina s4t3x1 SK, Canada",1,1.0,1,1,1,1,0,700,0,0,0,0,0,1,0,0,0,0,1,1,1,0,0,1,0,0,0,0,0,0,0,0,0,1,50.483860050000004,-104.56455595
392,860,"2024  14th Ave, Regina, SK, S4P 0X5",1,1.0,0,1,1,0,1,376,0,0,0,0,1,0,0,0,0,0,0,0,1,0,1,1,0,0,0,0,0,0,0,0,0,0,50.444099050000005,-104.61035500003936
393,955,"2175  Rae Street, Regina, SK, S4T 2E8",1,1.0,0,1,1,0,1,622,0,1,0,0,1,0,0,0,0,0,0,0,1,0,1,1,0,0,0,0,0,0,0,0,0,0,50.444161449999996,-104.6206538
394,1450,"2157 Toronto St, Regina, SK S4P 0B8, Canada",3,1.0,0,0,0,1,0,1134,0,0,0,0,0,0,0,0,0,1,0,0,1,1,1,0,1,0,0,0,0,0,0,0,0,1,50.4831516,-104.5994908
395,1195,"26 Shaw St, Regina, SK S4R 3M4, Canada",2,1.0,0,1,1,1,0,850,1,1,0,0,0,0,1,0,0,0,0,0,0,0,1,1,0,1,1,0,0,0,0,1,0,0,50.48127215,-104.62239270162036
396,1100,"67 Angus Rd, Regina, SK S4R 3L1, Canada",2,1.0,0,1,1,1,0,1140,0,1,0,0,1,0,0,0,0,0,0,0,0,0,1,1,0,0,0,0,1,0,0,1,1,0,50.48039905,-104.61993615
397,1500,"2315 McIntyre St, Regina, SK S4P 3Y8, Canada",2,1.0,1,1,1,1,0,750,0,1,0,0,0,0,1,0,0,0,0,0,1,0,1,0,1,0,0,0,0,0,0,0,1,0,50.4751379,-104.6166143
398,950,"2220 Robinson Street, Regina, SK, S4T 2P9",1,1.0,0,1,1,0,1,640,0,1,0,0,1,0,0,0,0,0,0,0,1,0,1,1,0,0,0,0,0,0,0,0,0,0,50.443677699999995,-104.62445485
399,1030,"2240 Robinson Street, Regina, SK, S4T 2P9",2,1.0,0,1,1,0,1,870,0,1,0,0,1,0,0,0,0,0,0,0,1,0,1,1,0,0,0,0,0,0,0,0,0,0,50.44325025,-104.62445604999999
400,850,"2901  5th Ave, Regina, SK, S4T 0L3",1,1.0,0,1,1,0,1,472,0,0,0,0,1,0,0,0,0,0,0,0,1,0,1,1,0,0,0,0,0,0,0,0,0,0,50.4612556,-104.62291479513875
401,600,", Regina S4P0P6 SK, Canada",1,1.0,1,1,1,1,0,300,0,0,0,0,1,0,0,0,0,0,0,0,1,0,1,1,0,0,0,0,0,0,0,0,0,0,50.483860050000004,-104.56455595
402,1098,"1701 Horizons Way, Regina, SK, S4Y 0G5",1,1.0,0,0,1,1,1,648,0,1,0,0,1,0,0,0,0,0,0,0,1,1,1,0,1,0,0,0,1,1,0,0,1,0,50.455082,-104.7037566
403,1500,"3630 Haughton Rd, Regina, SK S4V 1P1, Canada",2,2.0,0,0,1,1,0,1100,0,1,0,0,0,0,1,0,0,0,0,0,0,1,1,0,1,1,1,0,1,0,0,0,1,0,50.4405599,-104.5292377
404,1150,"2170 Angus St, Regina, SK S4T 1Z9, Canada",2,1.0,0,0,0,2,0,1000,0,0,0,0,0,0,0,0,0,1,0,0,1,1,1,1,1,0,0,0,0,0,0,0,1,0,50.444250249999996,-104.61999753013723
405,1500,", S4W0H7, Regina, SK, Canada",2,1.5,0,0,0,1,0,960,0,1,0,0,0,0,0,0,0,1,0,0,1,1,1,0,1,0,0,0,0,0,0,0,0,1,50.483860050000004,-104.56455595
406,1100,"8702 Herman Cres, Regina, SK S4Y 1A6, Canada",2,1.0,1,1,1,1,0,800,0,1,0,0,0,1,0,0,0,0,1,0,1,1,1,0,1,0,0,0,0,0,0,0,0,0,50.48124755,-104.70607943970306
407,1250,"232 Rae st, S4R3L9, Regina, SK",2,1.0,0,0,0,3,0,800,0,1,0,0,0,0,0,0,1,0,0,0,1,1,1,1,0,0,0,0,0,0,0,0,0,1,50.4740653,-104.62141331963791
408,1650,", S0Z7G0, Pilot Butte, SK, Canada",5,2.0,0,0,0,3,0,4000,0,1,0,0,0,1,0,0,0,0,0,0,1,0,1,0,1,0,0,0,0,0,0,0,0,1,50.4792174,-104.4185798
409,1075,"1420 North Silverleaf Blvd., Regina, SK, S0G 5K0",2,1.0,0,0,1,0,1,760,0,0,0,0,0,0,0,0,1,0,0,0,1,1,1,0,1,0,0,0,0,0,0,0,0,0,50.5003961,-104.6929896
410,799,"3525 Avonhurst Dr, Regina, SK, S4R 3K2",1,1.0,0,1,1,0,1,575,0,0,0,0,1,0,0,0,0,0,0,0,1,0,1,1,0,0,0,0,0,0,0,0,0,1,50.4707985,-104.6182456
411,1450,"247 Froom Cres, Regina S4N1T2 SK",3,2.0,0,0,0,3,0,1600,0,0,0,0,0,0,0,1,0,0,0,0,1,1,1,0,1,0,0,0,0,0,0,0,0,1,50.445569,-104.5677872
412,1299,"1060 Dorothy St., Regina, SK, S4X 3C5",2,1.0,0,0,1,0,1,877,0,1,1,0,1,0,0,0,0,0,0,1,1,1,1,0,1,1,0,0,0,1,0,0,1,1,50.4780904,-104.6824945
413,990,"2115 Angus Street, Regina, SK, S4T 2A1",1,1.0,0,1,1,0,1,950,0,1,0,0,1,0,0,0,0,0,0,0,1,0,1,1,0,0,0,0,0,0,0,0,1,0,50.445178150000004,-104.61920977554682
414,725,"15  Darlington St. E, Yorkton, SK, S3N 0C1",1,1.0,0,1,1,0,1,486,0,0,0,0,1,0,0,0,0,0,0,0,1,0,1,1,0,0,0,0,0,0,0,0,0,1,51.2163743,-102.4572246
415,1400,"3025 Cameron St, Regina, SK S4S 1W6, Canada",2,2.0,0,0,0,1,0,790,0,1,0,0,0,0,0,0,1,0,0,0,1,1,1,0,1,0,0,0,0,0,0,0,0,1,50.4310708,-104.62505225095057
416,925,"34 Nollet Ave, Regina, SK S4T 7J8, Canada",1,1.0,0,1,1,1,0,582,0,1,0,0,0,0,1,0,0,0,0,0,1,0,1,1,0,1,0,0,0,0,0,0,1,0,50.4823308,-104.6707827
417,900,"2121 Rae St, Regina, SK S4T 2E8, Canada",1,1.0,0,1,1,1,0,600,1,0,0,0,0,0,1,0,0,0,0,0,1,1,1,1,0,0,0,0,0,0,0,1,0,0,50.44511345,-104.62065966330624
418,1400,"4147 Green Apple Dr, Regina, SK S4V 2Z6, Canada",2,2.0,0,0,0,2,0,900,0,1,0,0,0,0,1,0,0,0,0,0,0,1,1,0,1,0,0,0,0,0,0,0,1,0,50.4212689,-104.5057695
419,875,"47 Centennial St, Regina, SK S4S 0A2, Canada",1,1.0,0,1,1,1,0,800,0,1,0,0,0,0,1,0,0,0,0,0,0,0,1,1,0,0,0,0,0,0,0,0,1,0,50.41392,-104.597823
420,1100,"1061 Birchwood Pl, Regina, SK S4S 7L1, Canada",2,1.0,0,0,1,1,0,800,0,1,0,0,0,0,1,0,0,0,0,0,0,1,1,0,1,0,0,0,0,0,0,0,1,0,50.3998643,-104.6030882
421,1395,"551 Guelph Crescent, Saskatoon, SK S7H 4R3, Canada",3,2.0,0,0,0,2,0,1200,0,0,0,0,0,0,0,1,0,0,0,0,1,1,1,0,1,0,0,0,0,0,0,0,0,1,52.1183546,-106.5666166
422,1100,"4016 Buckingham Dr, Regina, SK S4V 3A9, Canada",2,1.0,0,0,1,1,0,800,0,1,0,0,0,0,1,0,0,0,0,0,0,1,1,0,1,0,0,0,0,0,0,0,1,0,50.4293389,-104.5112813
423,1295,"Dakota Dr, Regina, SK S4Z, Canada",2,2.0,0,0,1,2,0,1160,0,1,0,0,0,0,1,0,0,0,0,0,1,1,1,0,1,0,0,0,1,0,0,1,1,0,50.451270,-104.530950
424,1285,"3928 Green Falls Drive, Regina, SK, S4V 3M1",2,1.0,0,1,1,0,1,840,0,1,0,0,1,0,0,0,0,0,0,0,0,1,1,0,1,0,0,0,1,1,1,0,1,0,50.41547775,-104.5155892367307
425,750,"2104  14th Ave, Regina, SK, S4P 0X6",1,1.0,0,1,1,0,1,343,0,0,0,0,1,0,0,0,0,0,0,0,1,0,1,1,0,0,0,0,0,0,0,0,0,0,50.4440296,-104.5688047
426,1500,"394 Cedar Meadow Dr, Regina, SK S4X 3E6, Canada",3,2.0,0,0,0,1,0,1150,0,1,0,0,0,0,1,0,0,0,0,0,1,1,1,0,1,0,0,0,0,0,0,1,1,0,50.4959305,-104.674314
427,1195,"2428 Edgar St, Regina, SK S4N 3L3, Canada",2,2.0,0,0,0,2,0,750,0,0,0,0,0,0,0,0,1,0,0,0,1,0,1,0,1,0,0,0,0,0,0,0,0,1,50.44027715,-104.58825328233283
428,1348,"502 University Park Drive, Regina, SK, S4V 3L8",2,1.0,0,1,1,1,1,860,0,1,0,0,1,0,0,0,0,0,0,0,1,1,1,0,1,0,0,0,1,0,0,0,1,0,50.4334839,-104.5560807
429,1000,"S4T3M6, Canada",3,2.0,0,0,0,1,0,1000,0,0,0,0,0,0,0,0,1,0,0,0,1,0,1,1,0,0,0,0,0,0,0,0,0,1,61.0666922,-107.991707
430,1350,"Dakota Dr, Regina, SK S4Z, Canada",2,2.0,0,0,0,1,0,1100,0,1,0,0,0,0,1,0,0,0,0,0,1,1,1,0,1,0,1,0,1,1,1,1,1,0,50.451270,-104.530950
431,1800,"S0G 4K0, Canada",5,3.0,0,0,0,3,0,1372,0,1,0,0,0,0,0,0,1,0,0,0,1,1,1,1,1,0,0,0,0,0,0,0,0,1,61.0666922,-107.991707
432,1590,"5290 Aerodrome Rd, Regina, SK S4W 0P4, Canada",3,1.5,0,0,0,1,0,1100,0,0,0,0,0,0,0,0,0,1,0,0,1,1,1,0,1,0,0,0,0,0,0,0,1,0,50.4069205,-104.6583422
433,1059,"193 Lockwood Rd., Regina, SK, S4S 6G9",1,1.0,1,1,1,0,1,658,0,1,1,0,1,0,0,0,0,0,0,1,1,0,1,1,0,1,0,0,0,0,0,0,1,0,50.401505400000005,-104.62601904510908
434,821,"22-41 Munroe Pl., Regina, SK, S4S 6A7",1,1.0,0,1,1,0,1,670,0,0,1,0,1,0,0,0,0,0,0,1,1,0,1,1,0,1,0,0,0,0,0,1,1,0,50.4143164,-104.6015627
435,1250,"SE , SE 3418 16 west of 2nd S0G0E0  SK, Canada",3,3.0,0,0,1,3,0,980,0,0,0,0,0,0,0,0,1,0,0,0,1,0,1,0,1,0,0,0,0,0,0,0,0,1,50.488802,-104.270453
436,882,"877 Scotia St, Melville, SK S0A 2P0, Canada",2,1.0,0,1,1,1,0,850,0,1,0,0,1,0,0,0,0,0,0,0,0,1,1,0,1,0,0,0,0,0,0,0,1,0,50.9294827,-102.7946437
437,950,"245 3 St NE, Wadena, SK S0A 4J0, Canada",2,1.0,1,1,1,1,1,800,0,1,0,0,1,0,0,0,0,0,1,1,0,0,1,1,0,0,0,0,0,0,0,0,1,0,51.9544827,-103.797173
438,1509,"Murphy Cres.& Lothian Mews, Regina, SK, S4X 1F5",3,1.0,0,0,1,0,1,1105,0,0,1,0,0,0,0,0,0,1,0,1,1,0,1,0,1,0,0,0,0,0,0,0,1,1,50.478440,-104.679972
439,750,"S4P1E9, Canada",1,1.0,0,0,0,0,1,900,0,0,1,0,0,0,0,0,1,0,0,0,1,0,1,1,1,0,0,0,0,0,0,0,0,1,61.0666922,-107.991707
440,850,"S4P1W5, Canada",2,1.0,0,0,0,1,1,1000,0,0,1,0,0,0,0,0,1,0,0,0,1,0,1,1,1,0,0,0,0,0,0,0,0,1,61.0666922,-107.991707
441,1650,"617 Smith Dorrien Ave, Esterhazy, SK S0A 0X0, Canada",3,2.0,1,1,1,3,0,1773,0,1,0,1,0,0,0,0,1,0,1,0,0,1,1,0,1,0,0,0,0,0,0,0,0,1,50.652577,-102.080305
442,1700,"MacKenzie Way, Regina S4N5M9 SK",3,1.5,0,0,0,1,0,1130,0,0,0,0,0,0,0,0,0,1,0,0,1,1,1,0,1,0,0,0,0,0,0,0,0,1,50.4578201,-104.542543
443,750,"1440 Angus St, Regina, SK S4T 1Y9, Canada",1,1.0,0,1,1,1,0,800,0,1,0,0,1,0,0,0,0,0,0,0,1,0,0,1,0,1,0,0,0,0,0,0,1,0,50.45603035,-104.61997766793158
444,700,"233  Bradbrooke Drive, Yorkton, SK, S3N 2K6",1,1.0,0,1,1,0,1,502,0,0,0,0,1,0,0,0,0,0,0,0,1,0,1,1,0,0,0,0,0,0,0,0,0,0,51.2032945,-102.4827595
445,1600,"204 Tyvan St, Francis, SK S0G 1V0, Canada",2,1.0,1,1,1,2,0,1260,0,1,0,1,0,1,0,0,0,0,1,0,0,0,1,0,1,0,0,0,0,0,0,0,1,1,50.100509,-103.8646992
446,1100,"2604 Lindsay Street, S4N 3E1, Regina, SK",1,1.0,1,1,1,2,0,700,0,0,0,0,0,1,0,0,0,0,0,0,1,1,0,0,1,0,0,0,0,0,0,0,0,1,50.43724015,-104.5853523
447,550,"1240 Angus St, Regina, SK S4T 1Y7, Canada",1,1.0,1,1,1,1,0,600,1,0,0,0,0,0,0,0,1,0,1,1,0,0,1,1,0,0,0,0,0,0,0,0,0,0,50.45915585,-104.61989941336657
448,1450,"S4W0E3, Canada",2,1.0,0,0,0,1,0,770,0,0,0,0,0,0,0,0,0,1,0,0,1,1,1,1,1,0,0,0,0,0,0,0,1,1,61.0666922,-107.991707
449,1198,"1701 Horizons Way, Regina, SK, S4Y 0G5",2,1.0,0,0,1,1,1,892,0,1,0,0,1,0,0,0,0,0,0,0,1,1,1,0,1,0,0,0,1,1,0,0,1,0,50.455082,-104.7037566
450,1600,"5125 Beacon Way, Regina, SK S4W 0H8, Canada",2,2.5,0,0,0,1,0,1000,0,1,0,0,0,0,0,0,0,1,0,0,1,1,1,0,1,0,0,0,0,0,0,0,0,1,50.3984057,-104.6546901
451,1000,"Garnet St, Regina, SK, Canada, S4T 2Y2",2,1.0,0,0,0,2,0,850,1,0,0,0,0,0,0,0,1,0,0,0,1,1,1,1,1,0,0,0,0,0,0,0,0,1,50.4797503,-104.6268662
452,800,"S4T1Y9, Canada",1,1.0,0,1,1,1,0,800,0,1,0,0,1,0,0,0,0,0,0,0,1,0,1,1,0,1,0,0,0,0,0,0,1,0,61.0666922,-107.991707
453,1050,"445 Government Rd, Weyburn, SK S4H 0P5, Canada",2,1.0,0,1,1,1,0,750,0,1,0,0,0,0,1,0,0,0,0,0,1,1,0,0,1,0,0,0,1,0,0,0,1,0,49.6654893,-103.8581816
454,1136,"41 Munroe Place, Regina, SK, S4S 6A7",2,1.0,0,1,1,0,1,850,0,1,1,0,1,0,0,0,0,0,0,1,1,0,1,0,1,1,0,0,0,0,0,1,1,1,50.4143164,-104.6015627
455,1129,"4040 Gordon Rd., Regina, SK, S4S 6W2",1,1.0,1,1,1,1,1,675,0,1,1,0,1,0,0,0,0,0,0,1,1,0,1,1,0,1,0,0,1,1,0,0,1,0,50.40582875,-104.63973689846534
456,1300,"331  Broad Street North, Regina, SK, S4R 2X8",2,2.0,0,1,1,0,1,832,0,1,0,0,1,0,0,0,0,0,0,0,1,0,1,1,0,0,0,0,0,0,0,0,1,0,50.4907451,-104.6061213
457,795,"2127 Lindsay St, Regina, SK S4N 3C1, Canada",1,1.0,1,1,1,0,0,500,1,1,0,0,1,0,0,0,0,0,0,0,0,0,0,1,0,0,0,0,0,0,0,1,0,1,50.44491695,-104.58477715000001
458,825,"6  Allanbrooke Dr, Yorkton, SK, S3N 2J7",1,1.0,0,1,1,0,1,565,0,0,0,0,1,0,0,0,0,0,0,0,1,0,1,1,0,0,0,0,0,0,0,0,1,0,51.203632,-102.484197
459,820,"2024  14th Ave, Regina, SK, S4P 0X5",1,1.0,0,1,1,0,1,473,0,0,0,0,1,0,0,0,0,0,0,0,1,0,1,1,0,0,0,0,0,0,0,0,0,0,50.444099050000005,-104.61035500003936
460,1089,"22-41 Munroe Pl., Regina, SK, S4S 6A7",1,1.0,0,1,1,1,1,670,0,1,1,0,1,0,0,0,0,0,0,1,1,0,1,1,0,1,0,0,0,0,0,1,1,0,50.4143164,-104.6015627
461,875,"321  Fietz St, Yorkton, SK, S3N 3P6",2,1.0,0,1,1,0,1,841,0,1,0,0,1,0,0,0,0,0,0,0,1,1,1,1,0,0,0,0,0,0,0,0,1,1,51.2136256,-102.4434251
462,935,"505 Rose St, Regina, SK S4R 1Z4, Canada",2,1.0,0,1,1,1,0,800,0,1,0,0,1,0,0,0,0,0,0,0,0,0,1,1,0,0,0,0,0,0,0,0,1,0,50.4788692,-104.6079614
463,1295,"Dakota Dr, Regina, SK S4Z, Canada",2,2.0,0,0,1,2,0,1160,0,1,0,0,0,0,1,0,0,0,0,0,1,1,1,0,1,0,0,0,1,0,0,1,1,0,50.451270,-104.530950
464,850,"2175  Rae Street, Regina, SK, S4T 2E8",1,1.0,0,1,1,0,1,380,0,1,0,0,1,0,0,0,0,0,0,0,1,0,1,1,0,0,0,0,0,0,0,0,0,0,50.444161449999996,-104.6206538
465,799,"1424 Victoria Ave, Regina, SK, S4P 0P3",1,1.0,0,1,1,0,1,520,0,0,0,0,1,0,0,0,0,0,0,0,1,0,1,0,0,0,0,0,0,0,0,0,0,0,50.4474552,-104.6015730253819
466,800,"S0G0a4, Canada",3,1.0,0,0,1,2,0,1000,0,0,0,0,0,0,0,0,1,0,0,0,0,0,1,1,1,0,0,0,0,0,0,0,1,1,61.0666922,-107.991707
467,800,"18  Allanbrooke Dr, Yorkton, SK, S3N 2J7",2,1.0,0,1,1,0,1,694,0,1,0,0,1,0,0,0,0,0,0,0,1,0,1,1,0,0,0,0,0,0,0,0,1,0,51.202371,-102.484924
468,825,"363  Northview Rd, Yorkton, SK, S3N 2X6",2,1.0,0,1,1,0,1,694,0,1,0,0,1,0,0,0,0,0,0,0,1,0,1,1,0,0,0,0,0,0,0,0,1,0,51.202979,-102.4873541
469,1398,"1251 N Galloway Street, Regina, SK, S4X 0M6",3,1.0,0,1,1,1,1,971,0,1,0,0,1,0,0,0,0,0,0,0,1,1,1,0,1,0,0,0,1,0,0,0,1,0,50.4979735,-104.6282567
470,650,"301  Bradbrooke Dr, Yorkton, SK, S3N 2K7",1,1.0,0,1,1,0,1,300,0,1,0,0,1,0,0,0,0,0,0,0,1,0,1,1,0,0,0,0,0,0,0,0,1,0,51.2032945,-102.4827595
471,750,"243  Bradbrooke Drive, Yorkton, SK, S3N 2K4",1,1.0,0,1,1,0,1,476,0,0,0,0,1,0,0,0,0,0,0,0,1,0,1,1,0,0,0,0,0,0,0,0,0,0,51.2032945,-102.4827595
472,725,"320  Gladstone Ave S, Yorkton, SK, S3N 3W3",1,1.0,0,1,1,0,1,618,0,1,0,0,1,0,0,0,0,0,0,0,1,1,1,1,0,0,0,0,0,0,0,0,1,1,51.2064176,-102.4742994
473,1000,"1 St, Estevan, SK S4A, Canada",5,2.0,0,0,0,2,1,1100,0,1,0,0,0,0,0,0,1,0,0,0,1,0,1,0,1,0,0,0,0,0,0,0,0,1,49.1373142,-102.9949342
474,1050,"176 2 Ave E, Melville, SK S0A 2P0, Canada",2,1.0,1,1,1,2,1,990,1,1,0,0,0,0,0,0,1,0,1,0,0,0,0,1,0,0,0,0,0,0,0,0,0,1,50.9263519,-102.8018586
475,1450,"1300 Stockton St, Regina, SK S4X 0B8, Canada",2,2.0,1,1,1,1,0,850,0,1,0,0,0,0,1,0,0,0,0,0,1,1,1,0,1,0,1,0,1,1,0,1,1,0,50.5031125,-104.6444481
476,1041,"41 Munroe Place, Regina, SK, S4S 6A7",1,1.0,0,1,1,0,1,650,0,1,1,0,1,0,0,0,0,0,0,1,1,0,1,0,1,1,0,0,0,0,0,1,1,1,50.4143164,-104.6015627
477,1350,", S4Z 0A5, Regina, SK",2,1.0,0,1,1,2,0,909,0,1,0,0,0,0,1,0,0,0,0,0,1,1,0,0,1,0,0,0,0,0,0,0,1,0,50.4193012,-104.58222594380054
478,850,"1602 Victoria Ave, Regina, SK, S4P 0P7",1,1.0,0,1,1,0,1,405,0,0,0,0,1,0,0,0,0,0,0,0,1,0,1,1,0,0,0,0,0,0,0,0,0,0,50.4475161,-104.60367785308398
479,1950,"Bentley Dr, Regina, SK S4N 5H7, Canada",3,2.0,0,0,0,3,0,1000,0,0,0,1,0,0,0,0,1,0,0,0,1,1,1,0,1,0,0,0,0,0,0,0,0,1,50.456605,-104.544883
480,700,"2250 Rose St., Regina, SK, S4P 2A7",1,1.0,0,1,1,0,0,500,0,0,0,0,1,0,0,0,0,0,0,0,1,0,1,1,0,0,0,0,0,0,0,0,0,0,50.44296875,-104.6083311
481,1045,"2125 Osler St, Regina, SK S4P 4G9, Canada",2,1.0,0,1,1,1,0,840,0,1,0,0,0,0,1,0,0,0,0,0,0,0,1,1,0,1,0,0,1,0,0,0,1,0,50.444666100000006,-104.60446759999999
482,1600,"3440 Avonhurst Dr, Regina, SK S4R 3K1, Canada",3,2.5,0,0,0,2,1,1235,0,1,0,0,0,0,0,0,0,1,0,0,1,1,1,0,1,0,0,0,0,0,0,0,0,1,50.4707985,-104.6182456
483,800,"1535 11th Ave, Regina, SK S4P 0H3, Canada",1,1.0,0,1,1,0,0,750,0,0,0,0,1,0,0,0,0,0,0,0,1,0,0,0,0,0,0,0,0,0,0,0,0,0,50.4489728,-104.6628758
484,850,"635 17 Ave E, Regina, SK S4N 0Y8, Canada",1,1.0,1,1,1,1,0,650,1,1,0,0,0,1,0,0,0,0,0,0,1,0,1,1,1,0,0,0,0,0,0,0,0,0,50.4501544,-104.61249
485,800,"1535 11th Ave, Regina, SK S4P 0H3, Canada",1,1.0,0,1,1,0,0,700,0,0,0,0,1,0,0,0,0,0,0,0,1,0,0,0,0,0,0,0,0,0,0,0,0,0,50.4489728,-104.6628758
486,1750,"4025 Hill Ave, Regina, SK S4S 0X7, Canada",2,2.0,0,0,1,1,0,1290,0,1,0,0,0,0,1,0,0,0,0,0,1,1,1,0,1,0,0,0,1,0,0,1,1,0,50.4283554,-104.6239303
487,1041,"41 Munroe Place, Regina, SK, S4S 6A7",1,1.0,0,1,1,0,1,650,0,1,1,0,1,0,0,0,0,0,0,1,1,0,1,0,1,1,0,0,0,0,0,1,1,1,50.4143164,-104.6015627
488,950,"S0G3N0, Canada",1,1.0,1,1,1,1,0,700,1,0,0,1,1,0,0,0,0,0,1,1,0,0,1,1,0,0,0,0,0,0,0,1,0,0,61.0666922,-107.991707
489,1250,"4216 Castle Rd, Regina, SK S4S 4W1, Canada",2,2.0,1,0,0,1,1,1200,0,1,0,0,0,0,0,0,0,1,0,0,0,1,1,0,1,0,0,0,0,0,0,0,0,1,50.4108733,-104.599646
490,1359,"1062 Dorothy St., Regina, SK, S4X 0N9",2,2.0,0,1,1,0,1,915,0,1,1,0,1,0,0,0,0,0,0,1,1,1,1,0,1,1,0,0,1,0,0,0,1,0,50.4780904,-104.6824945
491,954,"1060 Dorothy St., Regina, SK, S4X 3C5",1,1.0,0,0,1,0,1,675,0,1,1,0,1,0,0,0,0,0,0,1,1,1,1,0,1,1,0,0,0,1,0,0,1,1,50.4780904,-104.6824945
492,900,"Rosemont, Canada",1,1.0,0,0,1,1,1,660,0,0,0,0,1,0,0,0,0,0,0,0,1,0,1,1,1,0,1,0,0,0,0,1,1,1,45.5314955,-73.5973383
493,700,"722 Lalonde St, Whitewood, SK S0G 5C0, Canada",1,1.0,1,1,1,1,0,500,0,0,0,0,1,0,0,0,0,0,1,0,0,0,1,1,0,0,0,0,0,0,0,0,0,0,50.3336039,-102.2667448
494,2000,"S4N6V2, Canada",5,2.0,0,0,0,3,0,1250,0,0,0,0,0,0,0,0,1,0,0,0,1,1,1,1,1,0,0,0,0,0,0,0,1,1,61.0666922,-107.991707
495,938,"22-41 Munroe Pl., Regina, SK, S4S 6A7",2,1.0,0,1,1,0,1,860,0,0,1,0,1,0,0,0,0,0,0,1,1,0,1,1,0,1,0,0,0,0,0,1,1,0,50.4143164,-104.6015627
496,799,"1424 Victoria Ave, Regina, SK, S4P 0P3",1,1.0,0,1,1,0,1,520,0,0,0,0,1,0,0,0,0,0,0,0,1,0,1,0,0,0,0,0,0,0,0,0,0,0,50.4474552,-104.6015730253819
497,1750,"14 Milford Crescent, Regina, SK S4N 1K7, Canada",3,2.0,0,0,0,3,1,1300,0,1,0,1,0,0,0,0,1,0,0,0,1,1,1,1,1,0,0,0,0,0,0,0,1,1,50.45371175,-104.55165125093453
498,955,"2175  Rae Street, Regina, SK, S4T 2E8",1,1.0,0,1,1,0,1,622,0,1,0,0,1,0,0,0,0,0,0,0,1,0,1,1,0,0,0,0,0,0,0,0,0,0,50.444161449999996,-104.6206538
499,1000,"S4W0c7, Canada",1,1.0,1,0,1,1,0,500,0,0,0,0,0,1,0,0,0,0,1,1,0,0,1,1,1,0,0,0,0,0,0,0,0,0,61.0666922,-107.991707
500,1650,"Scarth St, Regina, SK S4P 2G9, Canada",1,1.0,1,1,1,1,0,868,1,1,0,0,0,0,1,0,0,0,1,1,0,1,1,0,1,0,0,0,1,0,0,0,0,0,50.4754868,-104.6108606
501,600,"176 2 Ave E, Melville, SK S0A 2P0, Canada",1,1.0,0,0,0,2,0,500,1,0,0,0,0,0,0,0,1,0,0,0,0,0,1,1,0,0,0,0,0,0,0,0,0,1,50.9263519,-102.8018586
502,1200,"Arthur St, Regina, SK S4R 4X2, Canada",3,1.0,0,0,0,2,0,900,0,1,0,0,0,0,0,0,1,0,0,0,0,0,1,0,1,0,0,0,0,0,0,0,0,1,50.4723962,-104.6481781
503,1249,"4040 Gordon Rd., Regina, SK, S4S 6W2",1,1.0,1,1,1,1,1,900,0,1,1,0,1,0,0,0,0,0,0,1,1,0,1,1,0,1,0,0,1,1,0,0,1,0,50.40582875,-104.63973689846534
504,900,"3838 Retallack Street, Regina, SK, S4S 3B8",1,1.0,0,1,1,0,1,600,0,1,0,0,1,0,0,0,0,0,0,0,1,0,1,1,0,0,0,0,0,0,0,0,0,0,50.417918,-104.62281859999999
505,1300,"2134 Halifax St, Regina, SK S4P 1T9, Canada",1,1.0,1,1,1,1,1,800,1,0,0,0,0,0,0,0,1,0,1,1,0,0,1,1,0,0,0,0,0,0,0,0,0,1,50.444807600000004,-104.60380220262763
506,1100,", Regina  S4N5L2 SK, Canada",3,1.0,0,0,0,0,0,980,0,1,0,0,0,0,0,1,0,0,0,0,1,0,1,0,1,0,0,0,0,0,0,0,0,1,50.483860050000004,-104.56455595
507,1059,"111 Lockwood Road, Regina, SK, S4S 3G5",1,1.0,1,1,1,0,0,679,0,1,0,0,1,0,0,0,0,0,0,0,1,1,1,0,0,0,0,0,1,0,1,0,1,0,50.404616250000004,-104.6260494749597
508,1300,"302 Gore Pl, Regina, SK S4T 7S4, Canada",2,1.0,0,0,1,1,1,890,0,1,0,0,0,0,1,0,0,0,0,0,1,1,1,0,1,0,0,0,0,0,0,0,1,0,50.4827462,-104.670063
509,1250,"1219 Broadway Ave, Saskatoon, SK S7H 2A4, Canada",2,2.0,0,0,0,1,0,785,0,0,0,1,0,0,0,0,1,0,0,0,1,1,1,0,1,0,0,0,0,0,0,0,0,1,52.119937,-106.6566872
510,1250,"729 Broadway Ave, S4N 1C4, Regina, SK",2,1.0,0,0,0,1,0,900,0,1,0,0,0,0,0,1,0,0,0,0,1,1,1,0,1,0,0,0,0,0,0,0,1,1,50.4374398,-104.59179989963607
511,1195,"S4R3M4, Canada",2,1.0,0,1,1,1,0,850,1,1,0,0,0,0,1,0,0,0,0,0,0,0,1,1,0,1,1,0,0,0,0,1,0,0,61.0666922,-107.991707
512,1120,"453 Retallack Street, Regina, SK, S4R 3N4",2,1.0,0,1,1,0,1,1000,0,1,0,0,1,0,0,0,0,0,0,0,1,0,1,1,0,0,0,0,0,0,0,0,0,0,50.4771602,-104.6225169
513,1120,"445  Retallack Street, Regina, SK, S4R 3N4",2,1.0,0,1,1,0,1,1000,0,1,0,0,1,0,0,0,0,0,0,0,1,0,1,1,0,0,0,0,0,0,0,0,0,0,50.4771602,-104.6225169
514,1200,"4677 James Hill, s4w0c7, Harbour Landing, SK",2,1.0,0,0,0,1,0,882,0,0,0,0,0,0,0,0,1,0,0,0,1,1,1,0,1,0,0,0,0,0,0,0,1,1,50.401101,-104.659104
515,795,"49 Ashwood Pl, Yorkton, SK S3N 2N1, Canada",2,1.0,0,0,1,2,0,825,0,0,0,0,1,0,0,0,0,0,0,0,0,0,1,1,0,0,0,0,0,0,0,0,0,1,51.1987695,-102.4873608
516,929,"193 Lockwood Rd, Regina, SK S4S 6G9, Canada",1,1.0,1,1,1,0,1,850,0,1,1,0,1,0,0,0,0,0,1,1,0,0,0,1,0,0,0,0,0,0,0,0,1,0,50.401505400000005,-104.62601904510908
517,800,"2415 Dewdney Ave, Regina, SK S4R 8R2, Canada",1,1.0,1,1,1,3,0,600,1,1,0,0,1,0,0,0,0,0,1,1,0,0,1,1,0,0,0,0,1,1,1,0,0,0,50.45493705,-104.54758369967414
518,2650,"2055 Rose St, Regina, SK S4P 2A3, Canada",2,2.0,1,1,1,1,0,1250,0,1,0,1,0,0,1,0,0,0,0,0,1,1,1,0,1,1,0,0,1,1,0,0,1,0,50.44626565,-104.60754769976865
519,800,"3824 Regina Ave, Regina, SK S4S 0H7, Canada",1,1.0,0,1,1,1,0,700,0,0,0,0,1,0,0,0,0,0,0,0,1,0,1,1,0,1,0,0,0,0,0,1,0,0,50.4351922,-104.63710629938869
520,850,"3945 Robinson Street, Regina, SK, S4S 3C7",2,1.0,0,0,0,0,0,900,0,0,0,0,1,0,0,0,0,0,0,0,1,0,0,0,0,0,0,0,0,0,0,0,0,0,50.41625865,-104.62352455
521,1200,"7234 Dewdney Ave, Regina, SK S4T 1E6, Canada",3,1.0,0,0,0,2,0,1230,0,0,0,0,0,0,0,1,0,0,0,0,0,0,1,0,1,0,0,0,0,0,0,0,0,1,50.4554572,-104.68388372453146
522,1700,"1250 Wessex Place, S4N 7S2, Regina, SK",3,3.0,0,0,0,2,1,1100,0,1,0,1,0,0,0,0,0,1,0,0,1,0,0,0,1,0,0,0,0,0,0,0,1,0,50.45948895,-104.56495888688528
523,1250,"S4S1E4, Canada",1,1.0,1,1,1,3,0,1055,1,1,0,1,0,0,0,0,1,0,1,0,1,1,1,1,1,0,0,0,0,0,0,0,0,1,61.0666922,-107.991707
524,1200,"College Ave, Regina, SK S4P 4V5, Canada",2,1.0,0,0,0,0,1,970,0,1,1,0,0,0,0,0,1,0,0,0,1,1,1,1,1,0,0,0,0,0,0,0,1,1,50.4425157,-104.5742551
525,1195,"S3N 2H1, Canada",2,1.5,1,1,1,0,1,600,0,1,0,1,0,1,0,0,0,0,1,0,1,0,1,1,1,0,0,0,0,0,0,0,0,1,61.0666922,-107.991707
526,1060,"1830 College Avenue, Regina S4P 1C2 SK",1,1.0,0,1,1,0,0,650,0,1,0,0,1,0,0,0,0,0,0,0,1,0,1,1,0,0,1,0,1,0,0,1,1,0,50.4411037,-104.60747008641326
527,1064,"5035 Sherwood Dr., Regina, SK, S4R 4C1",1,1.0,0,1,1,0,1,700,0,1,1,0,1,0,0,0,0,0,0,1,1,1,1,1,0,1,0,0,0,1,0,1,1,0,50.475556,-104.6325539
528,1100,"69  Kleisinger Cres, Regina, SK, S4R 6Z4",2,1.0,0,1,1,0,1,761,0,1,0,0,1,0,0,0,0,0,0,0,1,0,1,1,0,0,0,0,0,0,0,0,1,0,50.48469695,-104.61002479999999
529,725,"851 Scotia Street, S0A 2P0, Melville, SK",2,1.0,0,1,1,1,0,800,0,0,0,0,1,0,0,0,0,0,0,0,1,0,1,1,0,0,0,0,0,0,0,0,1,0,50.9294827,-102.7946437
530,1600,"1914 Hamilton St, Regina, SK S4P 3N6, Canada",1,1.0,1,1,1,1,1,882,1,1,0,1,0,0,1,0,0,0,0,0,1,1,1,0,1,1,0,1,1,1,0,1,0,0,50.4485466,-104.60979364984857
531,1000,"Carnduff, SK S0C 0S0, Canada",2,2.0,1,1,1,3,1,959,0,1,0,0,0,0,0,0,0,1,0,0,0,1,1,1,1,0,0,0,0,0,0,0,1,1,49.17554115,-101.79711950000001
532,1250,"661 Royal St, Regina, SK S4T 4Z3, Canada",2,1.0,0,0,0,0,1,860,0,1,0,0,0,0,0,0,1,0,0,0,1,1,1,1,0,0,0,0,0,0,0,0,0,1,50.467855650000004,-104.65074478660813
533,1030,"2240 Robinson Street, Regina, SK, S4T 2P9",2,1.0,0,1,1,0,1,870,0,1,0,0,1,0,0,0,0,0,0,0,1,0,1,1,0,0,0,0,0,0,0,0,0,0,50.44325025,-104.62445604999999
534,1268,"700 Gladmer Pk., Regina, SK, S4P 2W9",3,1.0,0,0,0,1,1,1056,0,0,1,0,0,0,0,0,0,1,0,1,1,1,1,0,1,0,0,0,0,0,0,0,1,1,50.435046,-104.603461
535,933,"22-41 Munroe Pl., Regina, SK, S4S 6A7",2,1.0,0,1,1,1,1,860,0,1,1,0,1,0,0,0,0,0,0,1,1,0,1,1,0,1,0,0,0,0,0,1,1,0,50.4143164,-104.6015627
536,938,"22-41 Munroe Pl., Regina, SK, S4S 6A7",2,1.0,0,1,1,0,1,860,0,0,1,0,1,0,0,0,0,0,0,1,1,0,1,1,0,1,0,0,0,0,0,1,1,0,50.4143164,-104.6015627
537,1100,"1061 Birchwood Pl, Regina, SK S4S 7L1, Canada",2,1.0,0,0,1,1,0,800,0,1,0,0,0,0,1,0,0,0,0,0,0,1,1,0,1,0,0,0,0,0,0,0,1,0,50.3998643,-104.6030882
538,1150,"405 2305 Victoria Avenue, Regina S4S 1B6 SK",1,1.0,1,1,1,1,0,700,1,1,0,0,0,0,1,0,0,0,0,0,1,1,1,1,0,0,1,0,1,0,0,1,0,0,50.446865,-104.614201
539,850,"Embury St, Regina, SK S4N 2L7, Canada",1,1.0,1,1,1,3,1,650,1,0,0,0,0,1,0,0,0,0,0,0,0,0,1,1,0,0,0,0,0,0,0,0,0,1,50.4455759,-104.5757881
540,930,"30 Spence Street, Regina, SK, S4S 4H4",1,1.0,0,1,1,0,1,675,0,1,0,0,1,0,0,0,0,0,0,0,1,0,1,1,0,0,0,0,0,0,0,0,1,0,50.413862550000005,-104.615852317709
541,950,"1454  Rae St, Regina, SK, S4T 2C5",2,1.0,0,1,1,0,1,684,0,1,0,0,1,0,0,0,0,0,0,0,1,0,1,1,0,0,0,0,0,0,0,0,1,0,50.45575635,-104.62143555014939
542,900,"Curtiss Ave, Regina, SK S0G, Canada",1,1.0,1,1,1,1,0,1300,1,1,0,0,0,1,0,0,0,0,1,0,0,0,0,1,0,0,0,0,0,0,0,0,0,0,50.4132733,-104.645034
543,1000,"340 Begg St W, Swift Current, SK S9H 0W1, Canada",3,2.0,0,0,0,3,0,1000,0,0,0,0,0,0,0,1,0,0,0,0,1,0,1,0,1,0,0,0,0,0,0,0,0,1,50.2937895,-107.8067092
544,909,"2630 6 Ave N, Regina, SK S4R 0P2, Canada",2,1.0,1,1,1,1,0,900,0,0,0,0,1,0,0,0,0,0,0,0,1,0,1,1,0,0,0,0,0,0,0,1,1,0,50.7887773,-104.9697961
545,1600,"89 McNab Crescent, Regina, SK S4S 4B3, Canada",3,1.0,0,0,0,2,0,1000,0,0,0,0,0,0,0,0,1,0,0,0,0,0,1,1,0,0,0,0,0,0,0,0,0,1,50.41901025,-104.60611589999999
546,1625,"1420 North Silverleaf Blvd., Regina, SK, S0G 5K0",3,2.0,0,0,1,0,1,1121,0,0,0,0,0,0,0,0,1,0,0,0,1,1,1,0,1,0,0,0,0,0,0,0,0,0,50.5003961,-104.6929896
547,525,"209 Lynch St, Maryfield, SK S0G 3K0, Canada",2,1.0,0,0,0,2,0,1000,0,0,0,0,0,0,0,0,1,0,0,0,0,0,1,0,1,0,0,0,0,0,0,0,0,1,49.8359255,-101.5233008
548,1285,"175 Robinson Avenue, Macoun, SK, V7S 1J6",3,2.0,0,0,0,3,1,1225,0,0,0,0,0,0,0,0,1,0,0,0,1,1,1,1,1,0,0,0,0,0,0,0,1,1,49.316933,-103.267335
549,950,"960 Garnet Street, Regina, SK, S4T 2X5",3,1.0,0,0,0,0,0,720,0,0,0,0,0,0,0,0,1,0,0,0,1,0,0,0,0,0,0,0,0,0,0,0,0,0,50.46333865,-104.62712255
550,1360,", Weyburn S4H0A2 SK, Canada",3,2.5,0,0,1,2,0,1260,0,1,0,0,0,0,0,0,0,1,0,0,0,1,1,0,1,0,0,0,0,0,0,0,0,0,49.6618116,-103.8567799
551,450,", Weyburn S4H0A2 SK, Canada",1,1.0,0,1,1,1,0,450,0,0,0,0,0,1,0,0,0,0,0,0,0,0,0,0,0,0,0,0,0,0,0,0,0,0,49.6618116,-103.8567799
552,1450,"1640 Dakota Dr, Regina, SK S4Z 0A1, Canada",2,1.0,0,0,1,2,0,940,0,1,0,0,0,0,1,0,0,0,0,0,1,1,1,0,1,0,0,0,1,1,1,0,1,0,50.453254099999995,-104.5291424822066
553,2500,"2500 Elphinstone St, Regina, SK S4S 0J6, Canada",4,2.0,1,1,1,2,0,900,0,1,0,0,0,0,0,1,0,0,0,0,0,0,0,0,1,0,0,0,0,0,0,0,0,0,50.43846475,-104.63155321111697
554,750,"65 Ambassador Trailer Ct, Estevan, SK S4A 2A2, Canada",3,1.0,0,0,0,2,1,1088,0,0,0,0,0,0,0,0,1,0,0,0,0,0,0,0,1,0,0,0,0,0,0,0,0,1,49.126203,-102.991145
555,1000,"Somerville road , Rae street  S4s2y5 SK, Canada",2,2.0,0,1,1,1,0,1200,0,0,0,0,0,1,0,0,0,0,1,0,1,0,0,1,0,0,0,0,0,0,0,0,0,1,50.464602,-104.621059
556,1000,", Harbour landing  S4w0c7 SK, Canada",1,1.0,1,0,1,0,0,500,0,0,0,0,0,1,0,0,0,0,1,1,1,0,1,0,1,0,0,0,0,0,0,0,0,0,50.406785,-104.652468
557,950,"512 4th Ave N, Saskatoon, SK S7K 2M7, Canada",1,1.0,0,1,1,1,0,626,0,1,0,0,1,0,0,0,0,0,0,0,1,1,1,0,1,0,0,0,0,0,0,0,1,0,52.1297647,-106.6596531
558,700,"Retallack St, Regina, SK S4T 2H3, Canada",2,1.0,0,0,0,1,0,800,0,0,0,0,0,0,0,0,1,0,0,0,0,0,1,0,1,0,0,0,0,0,0,0,0,1,50.4771602,-104.6225169
559,750,"509 Birtle St, Moosomin, SK S0G 3N0, Canada",1,1.0,1,1,1,1,0,400,1,1,0,0,1,0,0,0,0,0,1,1,0,0,0,1,0,0,0,0,0,0,0,0,1,0,50.1454867,-101.6688137
560,1000,", Leslie S0A 2E0 SK, Canada",1,1.0,0,0,0,1,1,100,0,0,0,0,0,0,0,0,1,0,0,0,1,0,0,0,0,0,0,0,0,0,0,0,0,1,43.7985091,-79.3689219
561,1800,"303 Royal Street, S4R4Y2, Regina, SK",4,2.0,0,0,0,2,0,950,0,0,0,0,0,0,0,0,1,0,0,0,1,0,1,0,1,0,0,0,0,0,0,0,1,1,50.4740261,-104.65210144167779
562,900,"1800 York Street, Regina, SK, S4T 4R2",1,1.0,0,0,0,0,1,650,0,1,0,0,1,0,0,0,0,0,0,0,1,1,1,0,0,0,0,0,0,0,0,0,0,0,50.450450200000006,-104.64547198541149
563,600,"Souris Ave, Frobisher, SK S0C 0Y0, Canada",2,1.0,0,0,0,2,0,900,0,1,0,0,1,0,0,0,0,0,0,0,1,0,1,0,1,0,0,0,0,0,0,0,0,0,49.208935,-102.428590
564,800,"431 17 Ave E, Regina, SK S4N 0Y4, Canada",1,1.0,0,1,1,1,0,800,0,0,0,0,1,0,0,0,0,0,0,0,1,0,1,1,0,0,0,0,0,0,0,0,0,0,50.4501544,-104.61249
565,500,"S4H1W7, Canada",2,2.5,1,1,1,1,0,1234,1,1,0,0,0,0,0,0,1,0,1,0,0,1,1,1,1,0,0,0,0,0,0,0,1,1,61.0666922,-107.991707
566,1400,"865 Queen St, Regina, SK S4T 4A6, Canada",3,2.0,1,1,1,1,0,1280,0,1,0,0,0,0,0,0,1,0,0,0,1,1,1,1,1,0,0,0,0,0,0,0,1,1,50.4071575,-104.636934
567,800,"S4T0L2, Canada",2,1.0,0,0,0,1,1,700,0,0,0,0,0,0,0,0,1,0,0,0,0,0,1,1,0,0,0,0,0,0,0,0,0,1,61.0666922,-107.991707
568,1300,"3420 Park St, Regina, SK S4V 2M9, Canada",3,1.5,0,1,1,1,0,980,0,0,0,0,0,0,1,0,0,0,0,0,1,1,1,0,1,0,0,0,1,0,0,0,1,0,50.424499100000006,-104.57317721037263
569,938,"22-41 Munroe Pl., Regina, SK, S4S 6A7",2,1.0,0,1,1,0,1,860,0,0,1,0,1,0,0,0,0,0,0,1,1,0,1,1,0,1,0,0,0,0,0,1,1,0,50.4143164,-104.6015627
570,989,"22-41 Munroe Pl., Regina, SK, S4S 6A7",2,1.0,0,1,1,1,1,860,0,1,1,0,1,0,0,0,0,0,0,1,1,0,1,1,0,1,0,0,0,0,0,1,1,0,50.4143164,-104.6015627
571,1375,"2830 Gordon Rd, Regina, SK S4S 6A1, Canada",2,1.0,1,1,1,1,0,926,0,1,0,0,0,0,1,0,0,0,0,0,1,1,1,1,0,0,0,0,1,1,1,0,1,0,50.4053187,-104.6631924
572,1300,"331  Broad Street North, Regina, SK, S4R 2X8",2,2.0,0,1,1,0,1,832,0,1,0,0,1,0,0,0,0,0,0,0,1,0,1,1,0,0,0,0,0,0,0,0,1,0,50.4907451,-104.6061213
573,1190,"4013 Harbour Landing Dr, Regina, SK, S4W 0E5",2,1.0,0,0,1,0,1,691,0,1,0,0,1,0,0,0,0,0,0,0,1,1,1,0,1,0,0,0,1,1,1,0,1,0,50.4180892,-104.6487588
574,1268,"700 Gladmer Pk., Regina, SK, S4P 2W9",3,1.0,0,0,0,1,1,1056,0,0,1,0,0,0,0,0,0,1,0,1,1,1,1,0,1,0,0,0,0,0,0,0,1,1,50.435046,-104.603461
575,799,"1424 Victoria Ave, Regina, SK, S4P 0P3",1,1.0,0,1,1,0,1,520,0,0,0,0,1,0,0,0,0,0,0,0,1,0,1,0,0,0,0,0,0,0,0,0,0,0,50.4474552,-104.6015730253819
576,900,"5430 McClelland Dr, Regina, SK S4W 0K7, Canada",1,1.0,0,0,0,1,0,400,1,0,0,0,0,1,0,0,0,0,1,0,1,1,1,0,1,0,0,0,0,0,0,0,0,0,50.404558550000004,-104.65889268245087
577,2100,"2300 Broad St, Regina, SK S4P 1Y8, Canada",2,2.0,0,1,1,1,1,1400,0,1,0,1,0,0,1,0,0,0,0,0,1,1,1,1,1,0,1,0,1,1,0,1,1,0,50.4301772,-104.6035014
578,975,"3832 Rae St, Regina, SK S4S 3A1, Canada",2,1.0,0,1,1,1,1,770,0,1,0,0,1,0,0,0,0,0,0,0,1,0,1,1,0,1,1,0,0,0,0,1,0,1,50.4179812,-104.62140572388142
579,685,", Canora S0A0L0 SK, Canada",2,1.0,0,0,0,1,0,800,0,0,0,0,0,0,0,0,1,0,0,0,1,0,1,0,1,0,0,0,0,0,0,0,0,1,45.5170377,-73.6431883
580,1500,"2157 Toronto St, Regina, SK S4P 0B8, Canada",3,1.0,0,0,0,1,0,1134,1,0,0,0,0,0,1,0,0,0,0,0,1,1,1,0,1,0,0,0,0,0,0,0,1,1,50.4831516,-104.5994908
581,900,"2353 Ottawa St, Regina, SK S4P 1R2, Canada",2,1.0,0,1,1,1,0,800,0,0,0,0,1,0,0,0,0,0,0,0,1,0,1,1,0,0,0,0,0,0,0,0,0,1,50.4414175,-104.6002424234305
582,1239,"700 Gladmer Pk., Regina, SK, S4P 2W9",2,1.0,0,0,0,1,1,864,0,0,1,0,0,0,0,0,0,1,0,1,1,1,1,0,1,0,0,0,0,0,0,0,1,1,50.435046,-104.603461
583,1350,"2315 McIntyre Street, Regina, SK, S4P 3Y8",1,1.0,0,0,0,0,0,725,0,1,0,0,0,0,0,0,1,0,0,0,1,0,1,0,0,0,0,0,0,0,0,0,0,0,50.4751379,-104.6166143
584,1500,"126 Oakview Drive, Regina, SK, S4R 0E4",4,2.5,0,0,0,0,0,1188,0,0,0,0,0,0,0,0,1,0,0,0,1,0,0,0,0,0,0,0,0,0,0,0,0,0,50.4873245,-104.6114517
585,1200,"38 Spence Street, Regina, SK, S4S 4H4",2,1.0,0,0,0,0,0,900,0,1,0,0,0,0,0,0,1,0,0,0,1,1,1,0,0,0,0,0,0,0,0,0,0,0,50.4132646,-104.61584161771535
586,1000,", Regina S4W 0K8 SK, Canada",1,1.0,1,1,1,0,0,800,1,1,0,0,0,1,0,0,0,0,1,1,1,0,1,0,1,0,0,0,0,0,0,0,0,1,50.483860050000004,-104.56455595
587,750,"S4V3N4, Canada",1,1.0,1,1,1,1,0,750,1,1,0,0,0,1,0,0,0,0,1,1,0,1,1,1,1,0,0,0,0,0,0,0,1,1,61.0666922,-107.991707
588,1350,"51 Rodenbush Dr, Regina, SK S4R 8C7, Canada",2,1.0,1,1,1,1,0,907,1,1,0,0,0,0,1,0,0,0,1,1,0,1,1,1,0,0,0,0,0,0,1,0,1,0,50.4973958,-104.5987942
589,950,"2334 Broder St, Regina, SK S4N 3S8, Canada",2,1.0,0,0,0,1,0,900,0,0,0,0,0,0,0,0,1,0,0,0,1,0,0,1,0,0,0,0,0,0,0,0,0,0,50.4417574,-104.59112665693837
590,550,"136 Solberg St, Milestone, SK S0G 3L0, Canada",2,1.0,0,0,0,2,0,672,0,0,0,0,0,0,0,0,1,0,0,0,1,0,1,0,1,0,0,0,0,0,0,0,0,1,49.9904803,-104.5106379
591,850,"2175  Rae Street, Regina, SK, S4T 2E8",1,1.0,0,1,1,0,1,380,0,1,0,0,1,0,0,0,0,0,0,0,1,0,1,1,0,0,0,0,0,0,0,0,0,0,50.444161449999996,-104.6206538
592,1100,"26 Shaw Street -, Regina, SK, S4R 3M4",2,1.0,0,0,0,0,0,817,0,1,0,0,0,0,0,0,1,0,0,0,1,0,1,0,0,0,0,0,0,0,0,0,0,0,50.48127215,-104.62239270162036
593,550,"628 Norway Rd, Canora, SK S0A 0L0, Canada",1,1.0,0,1,1,1,0,500,1,0,0,0,1,0,0,0,0,0,0,0,1,0,0,1,0,0,0,0,0,0,0,1,0,1,51.629674,-102.431285
594,1350,"70 Froom Crescent, Regina, SK S4N 1S7, Canada",3,1.0,1,1,1,1,0,1304,0,0,0,0,1,0,0,0,0,0,0,0,0,0,0,1,0,0,0,0,0,0,0,0,1,0,50.4457809,-104.56624245004303
595,950,"4435 A Dewdney Ave, REGINA S4t 1b3 SK",2,1.0,0,0,0,2,0,1060,0,0,0,0,0,1,0,0,0,0,0,0,1,1,1,0,1,0,0,0,0,0,0,0,0,1,50.4547205,-104.5597923
596,600,"S3N1m3, Canada",1,1.0,1,1,1,1,0,450,0,0,0,0,1,0,0,0,0,0,0,0,1,0,1,1,0,0,1,0,0,0,0,0,0,1,61.0666922,-107.991707
597,800,"1560 Alexandra St, Regina, SK S4T 4N9, Canada",1,1.0,0,1,1,1,0,650,0,0,0,0,1,0,0,0,0,0,0,0,1,0,1,1,0,0,0,0,0,0,0,0,0,0,50.453599600000004,-104.6441403
598,800,"1130 Angus Street, Regina S4T 1Y5 SK",3,1.0,0,0,0,1,1,1000,0,0,0,0,0,0,0,0,1,0,0,0,1,0,0,0,1,0,0,0,0,0,0,0,0,1,50.460799300000005,-104.61989099929463
599,123,"2119 Osler St, Regina, SK S4P 1W7, Canada",1,1.0,0,1,1,0,1,750,0,1,0,0,1,0,0,0,0,0,0,0,1,0,1,1,0,1,1,0,0,0,0,0,0,0,50.44508545,-104.60452574928284
600,1150,"9 6 St, Weyburn, SK S4H 0A8, Canada",2,2.0,0,0,1,1,0,1100,0,1,0,0,0,0,1,0,0,0,0,0,1,1,1,0,1,0,0,0,0,0,0,0,1,0,49.659625,-103.850231
601,795,"#4-2223 McIntyre Street , Regina s4p 2s1 SK",1,1.0,0,1,1,1,0,640,0,1,0,0,1,0,0,0,0,0,0,0,0,0,1,1,0,1,0,0,0,0,0,1,0,0,50.443487,-104.616173
602,1075,", s4p2s1, Regina, SK",2,1.0,0,1,1,1,0,980,0,1,0,0,1,0,0,0,0,0,0,0,0,0,1,1,0,1,0,0,0,0,0,1,0,0,50.4193012,-104.58222594380054
603,825,"2504 Argyle St, Regina, SK S4S 0J2, Canada",1,1.0,0,1,0,1,0,900,0,0,0,0,1,0,0,0,0,0,0,0,1,1,1,1,0,0,0,0,0,0,0,0,0,0,50.438350400000004,-104.6329132247103
604,750,"1610 Angus St, Regina, SK S4T 1Z2, Canada",1,2.5,0,1,1,1,0,600,0,0,0,0,1,0,0,0,0,0,0,0,0,0,1,1,0,1,0,0,0,0,0,0,0,0,50.4754879,-104.6196339
605,1500,"S4X0J1, Canada",2,1.0,0,1,1,1,0,963,1,1,0,0,0,0,1,0,0,0,0,0,1,1,1,0,1,0,1,0,0,0,0,1,1,0,61.0666922,-107.991707
606,650,"1610 Angus St, Regina, SK S4T 1Z2, Canada",1,2.5,0,1,1,1,0,300,0,0,0,0,1,0,0,0,0,0,0,0,0,0,0,1,0,0,0,0,0,0,0,0,0,0,50.4754879,-104.6196339
607,1100,"357 Froom Crescent, Regina, SK S4N 1T4, Canada",2,1.0,1,1,1,1,0,900,0,0,0,0,0,1,0,0,0,0,0,0,0,1,1,0,1,0,0,0,0,0,0,0,0,0,50.440468100000004,-104.5674124529423
608,935,"505 Rose St, Regina, SK S4R 1Z4, Canada",2,1.0,0,1,1,1,0,800,0,1,0,0,1,0,0,0,0,0,0,0,0,0,1,1,0,0,0,0,0,0,0,0,1,0,50.4788692,-104.6079614
609,940,"331  Broad Street North, Regina, SK, S4R 2X8",1,1.0,0,1,1,0,1,659,0,1,0,0,1,0,0,0,0,0,0,0,1,0,1,1,0,0,0,0,0,0,0,0,1,0,50.4907451,-104.6061213
610,750,"2104  14th Ave, Regina, SK, S4P 0X6",1,1.0,0,1,1,0,1,343,0,0,0,0,1,0,0,0,0,0,0,0,1,0,1,1,0,0,0,0,0,0,0,0,0,0,50.4440296,-104.5688047
611,1400,"2126 Elliott St, Regina, SK S4N 3H2, Canada",3,1.0,0,0,0,1,1,954,0,0,0,0,0,0,0,0,1,0,0,0,0,0,1,0,1,0,0,0,0,0,0,0,0,1,50.4449154,-104.58681849999999
612,900,"2504 Argyle St, Regina, SK S4S 0J2, Canada",1,1.0,0,1,1,1,0,900,0,0,0,0,0,0,0,1,0,0,0,0,1,1,1,1,0,0,0,0,0,0,0,0,0,0,50.438350400000004,-104.6329132247103
613,1200,"1411 Fleet St, Regina, SK S4N 5R6, Canada",2,1.0,1,1,1,0,0,900,1,1,0,0,0,1,0,0,0,0,1,0,0,0,1,1,0,0,0,0,0,0,0,0,0,0,50.45629615,-104.54834577484091
614,625,"117 Main St, Radville, SK S0C 2G0, Canada",1,1.0,1,1,1,1,0,600,0,0,0,0,1,0,0,0,0,0,0,0,1,0,1,1,0,1,1,0,0,0,0,0,1,1,49.4595657,-104.3000808
615,2000,"484 Mutual St, Ottawa, ON K1K 1C8, Canada",3,2.0,0,0,0,1,0,1100,0,1,0,0,0,0,0,0,1,0,1,0,0,0,1,0,1,0,0,0,0,0,0,0,0,1,45.432899,-75.6464335
616,1000,", Harbour Landing S4W0K5 SK",2,1.0,0,0,0,2,0,800,0,0,0,0,0,1,0,0,0,0,1,0,1,1,1,0,1,0,0,0,0,0,0,0,0,0,50.406785,-104.652468
617,400,"s4a0b8, Canada",5,4.0,1,1,1,3,1,1500,0,0,0,0,0,0,0,0,1,0,0,0,1,0,0,0,0,0,0,0,0,0,0,0,0,1,61.0666922,-107.991707
618,995,"2420 6 Ave N, Regina, SK S4R 3B4, Canada",2,1.0,0,1,1,1,1,800,0,1,0,0,1,0,0,0,0,0,0,0,0,0,0,1,0,0,0,0,0,0,0,1,1,0,50.7887773,-104.9697961
619,895,"2420 6 Ave N, Regina, SK S4R 3B4, Canada",1,1.0,0,1,1,1,1,650,0,1,0,0,1,0,0,0,0,0,0,0,0,0,1,1,0,0,0,0,0,0,0,1,1,0,50.7887773,-104.9697961
620,800,"357 N Broad St, Regina, SK S4R 2X8, Canada",1,1.0,0,1,1,1,0,650,0,1,0,0,1,0,0,0,0,0,0,0,0,0,1,1,0,0,0,0,0,0,0,0,1,0,50.4301772,-104.6035014
621,850,"357 N Broad St, Regina, SK S4R 2X8, Canada",2,1.0,0,1,1,1,0,900,0,1,0,0,1,0,0,0,0,0,0,0,0,0,1,1,0,0,0,0,0,0,0,0,1,0,50.4301772,-104.6035014
622,1100,"2305 Victoria Ave, Regina, SK S4P 0S7, Canada",1,1.0,0,1,1,1,0,500,1,0,0,0,0,0,1,0,0,0,0,0,1,1,1,1,0,0,0,0,0,0,0,0,0,0,50.44681495,-104.61420179718525
623,1400,", YORKTON S3N 0Z7 SK, Canada",4,2.0,0,0,0,3,0,850,0,1,0,0,0,0,0,0,1,0,0,0,1,1,1,0,1,0,0,0,0,0,0,0,0,1,51.2240417,-102.4472786
624,750,"88 Betts Ave, Yorkton, SK S3N 1M3, Canada",1,1.0,0,1,1,1,0,400,0,0,0,0,1,0,0,0,0,0,0,0,0,0,1,1,0,0,1,0,0,0,0,1,0,0,51.2213728,-102.4642044
625,950,"Weyburn, SK, Canada, S4H 2V2",1,1.0,0,1,1,1,0,632,1,1,0,0,0,0,1,0,0,0,0,0,1,1,1,0,1,0,0,0,1,0,0,0,1,0,49.6618116,-103.8567799
626,1100,"Regina, SK S4N3H2, Canada",2,1.0,0,0,0,1,1,576,0,0,0,1,0,0,0,0,1,0,0,0,0,0,1,0,1,0,0,0,0,0,0,0,0,1,50.4193012,-104.58222594380054
627,1450,"12 Lyons St, Regina, SK S4T 6G1, Canada",3,3.0,0,0,0,2,1,1300,0,1,0,0,0,0,0,1,0,0,0,0,0,1,1,0,1,0,0,0,0,0,0,0,0,1,50.4649795,-104.6690122
628,1195,"35 Alport Crescent, Regina, SK S4R 7X2, Canada",2,1.0,0,1,1,1,0,700,1,1,0,0,0,0,1,0,0,0,0,0,0,0,1,1,0,0,0,0,0,0,1,0,1,1,50.4985542,-104.5994545
629,1650,"55 Harbour Landing Dr, Regina, SK S4W 0B8, Canada",3,1.5,0,0,0,2,0,1140,0,1,0,0,0,0,0,0,0,1,0,0,1,1,1,0,1,0,0,0,0,0,0,0,0,1,50.4180892,-104.6487588
630,2100,"2101 Heseltine Rd, Regina, SK S4V, Canada",2,2.0,1,1,1,2,0,964,1,0,0,0,0,0,1,0,0,0,1,1,1,1,1,0,1,0,1,1,1,1,1,0,1,0,50.443846,-104.543370
631,995,"2920 Victoria Ave, Regina, SK S4T 1K7, Canada",2,1.0,0,1,1,1,0,600,0,1,0,0,1,0,0,0,0,0,0,0,1,0,1,1,0,0,0,0,0,0,0,1,1,0,50.44744525,-104.62324595048109
632,1000,", S0C0B0, Alida, SK, Canada",3,1.5,0,0,1,3,0,1200,0,0,0,0,0,0,0,0,1,0,0,0,0,0,1,1,0,0,0,0,0,0,0,0,0,1,49.389748,-101.871103
633,2000,"2328 Halifax St, Regina, SK S4P 1V4, Canada",1,1.0,1,1,1,0,0,500,0,0,0,0,1,0,0,0,0,0,0,0,1,0,1,1,0,0,0,0,0,0,0,0,0,1,50.4418536,-104.6037963981413
634,700,"Box 1468, S0A0X0, Esterhazy, SK, Canada",4,2.0,1,1,1,2,0,1172,1,1,0,0,0,0,0,0,1,0,1,0,0,1,1,1,0,0,0,0,0,0,0,0,0,1,50.654324,-102.071764
635,1495,"5200 Parliament Ave, Regina, SK S4W 0R5, Canada",2,2.0,1,1,1,1,0,800,0,1,0,1,0,0,1,0,0,0,0,0,0,1,1,0,1,1,1,1,0,1,1,1,1,0,50.418041200000005,-104.65552856002125
636,1675,"S4T1G7, Canada",3,2.5,0,0,0,2,0,1000,0,1,0,0,0,0,0,0,0,1,0,0,1,1,1,1,1,0,0,0,0,0,0,0,1,1,61.0666922,-107.991707
637,800,"709 Beckwell Ave, Radville, SK S0C 2G0, Canada",2,1.0,1,1,1,3,0,800,1,0,0,0,0,0,0,0,1,0,0,0,1,0,1,0,1,0,0,0,0,0,0,0,0,1,49.4600893,-104.2989004
638,994,"Rae St, S4S3A2, REGINA, SK",2,1.0,0,1,1,1,1,720,0,1,0,0,1,0,0,0,0,0,0,0,1,0,1,1,0,0,0,0,0,0,0,1,0,0,50.4739403,-104.6210651
639,650,"S3N0k4, Canada",1,1.0,1,1,1,0,0,500,0,0,0,0,1,0,0,0,0,0,0,0,0,0,0,1,0,0,1,0,0,0,0,1,0,0,61.0666922,-107.991707
640,700,"1031 Argyle St, Regina, SK S4T 3R4, Canada",2,1.0,0,0,0,0,1,800,0,0,1,0,0,0,0,0,1,0,0,0,0,0,0,0,1,0,0,0,0,0,0,0,0,1,50.4622649,-104.63231289999999
641,1285,"3928 Green Falls Drive, Regina, SK, S4V 3M1",2,1.0,0,1,1,0,1,840,0,1,0,0,1,0,0,0,0,0,0,0,0,1,1,0,1,0,0,0,1,1,1,0,1,0,50.41547775,-104.5155892367307
642,940,"331  Broad Street North, Regina, SK, S4R 2X8",1,1.0,0,1,1,0,1,659,0,1,0,0,1,0,0,0,0,0,0,0,1,0,1,1,0,0,0,0,0,0,0,0,1,0,50.4907451,-104.6061213
643,1300,"331  Broad Street North, Regina, SK, S4R 2X8",2,2.0,0,1,1,0,1,832,0,1,0,0,1,0,0,0,0,0,0,0,1,0,1,1,0,0,0,0,0,0,0,0,1,0,50.4907451,-104.6061213
644,1022,"22-41 Munroe Pl., Regina, SK, S4S 6A7",2,1.0,0,1,1,0,1,860,0,0,1,0,1,0,0,0,0,0,0,1,1,0,1,1,0,1,0,0,0,0,0,1,1,0,50.4143164,-104.6015627
645,933,"22-41 Munroe Pl., Regina, SK, S4S 6A7",2,1.0,0,1,1,1,1,860,0,1,1,0,1,0,0,0,0,0,0,1,1,0,1,1,0,1,0,0,0,0,0,1,1,0,50.4143164,-104.6015627
646,650,"Oxbow, Canada",1,1.0,1,1,1,1,0,500,1,0,0,0,1,0,0,0,0,0,0,0,1,0,1,1,0,0,1,0,0,0,0,1,0,1,49.2298181,-102.173666
647,1000,"S4A 0L7, Canada",3,2.0,0,0,0,3,1,1000,0,1,0,0,0,0,0,0,1,0,0,0,1,1,1,1,1,0,0,0,0,0,0,0,0,1,61.0666922,-107.991707
648,960,"433 Osler St, Regina, SK S4R 1V8, Canada",3,1.0,0,0,1,2,0,1000,0,1,0,0,0,0,0,0,1,0,0,0,1,0,1,0,1,0,0,0,0,0,0,0,0,1,50.4739344,-104.604923
649,1000,"2155 Winnipeg St, Regina, SK S4P 1G9, Canada",1,1.0,1,1,1,1,0,600,1,0,0,0,0,1,0,0,0,0,1,0,0,0,1,0,1,0,0,0,0,0,0,0,0,1,50.4445002,-104.59486562441049
650,1600,"1914 Hamilton St, Regina, SK S4P 3N6, Canada",1,1.0,1,1,1,1,1,882,1,1,0,1,0,0,1,0,0,0,0,0,0,1,1,0,1,1,1,1,1,1,0,1,0,0,50.4485466,-104.60979364984857
651,1000,"angus road, Canada",1,1.0,1,1,1,1,0,696,0,1,0,0,1,0,0,0,0,0,1,0,1,1,1,1,0,0,0,0,0,0,0,1,0,0,50.478071,-104.6203968
652,900,"3935 Robinson Street, S4S 3C8, Regina, SK",2,1.0,0,1,1,1,0,575,0,0,1,0,1,0,0,0,0,0,0,0,0,0,0,1,0,0,0,0,0,0,0,0,0,0,50.41640035,-104.62352840038582
653,550,"1901 14 Ave, Regina, SK S4P 0X4, Canada",1,1.0,1,1,1,1,0,300,0,0,0,0,1,0,0,0,0,0,0,0,1,0,1,1,0,0,1,0,0,0,0,1,0,1,50.4501544,-104.61249
654,700,"1106 McIntosh St, Regina, SK S4T 5B9, Canada",1,1.0,0,1,1,1,0,500,0,0,0,0,1,0,0,0,0,0,0,0,0,0,1,1,0,0,0,0,0,0,0,0,0,0,50.4603218,-104.65284062505873
655,800,"373 N Broad St, Regina, SK H1V 2X8, Canada",1,1.0,0,1,1,1,0,800,0,1,1,0,1,0,0,0,0,0,0,0,0,0,1,1,0,0,0,0,0,0,0,0,0,0,50.4301772,-104.6035014
656,850,"373 N Broad St, Regina, SK H1V 2X8, Canada",2,1.0,0,1,1,1,0,925,0,1,1,0,1,0,0,0,0,0,0,0,0,0,1,1,0,0,0,0,0,0,0,0,0,0,50.4301772,-104.6035014
657,1200,", regina s4t 5a7 SK, Canada",2,1.0,1,1,1,1,0,700,0,0,0,0,0,0,0,0,1,0,0,0,0,0,0,0,1,0,0,0,0,0,0,0,1,0,50.483860050000004,-104.56455595
658,800,", Calder S3N 2X3 SK, Canada",2,1.5,0,0,0,2,0,800,0,1,0,0,0,0,0,0,1,0,0,0,1,1,1,0,1,0,0,0,0,0,0,0,0,1,53.5853295,-113.5406933
659,800,"1021 4 Ave, Esterhazy, SK S0A 0X0, Canada",2,1.0,0,1,1,1,0,950,0,1,0,0,1,0,0,0,0,0,0,0,0,0,0,1,0,0,0,0,0,0,0,0,1,0,50.658142,-102.073016
660,2200,"2363 Broad St, Regina, SK S4P 1B9, Canada",3,2.0,0,1,1,1,0,2500,0,0,0,1,1,0,0,0,0,0,0,0,1,1,1,0,0,0,0,0,0,0,0,0,0,0,50.4301772,-104.6035014
661,750,"Logan Crescent., S3N 0W3, Yorkton, SK",1,1.0,1,1,1,1,0,500,1,0,0,0,0,1,0,0,0,0,1,1,0,0,1,1,0,0,0,0,0,0,0,0,0,0,51.201001,-102.462723
662,950,", Regina S4T 5K6 SK, Canada",1,1.0,1,1,1,0,0,750,0,1,0,0,0,1,0,0,0,0,1,0,1,1,1,1,0,0,0,0,0,0,0,0,0,1,50.483860050000004,-104.56455595
663,950,"311 Tremaine Ave, Regina, SK S4R 6T9, Canada",1,1.0,0,1,1,1,1,900,0,1,0,0,0,0,0,0,1,0,0,0,1,0,1,1,1,0,0,0,0,0,0,0,1,1,50.49182465,-104.66174964999999
664,2000,", Regina S4n3g9  SK, Canada",5,4.0,0,0,0,2,0,2100,0,1,0,0,0,0,0,0,1,0,0,0,1,0,1,1,0,0,0,0,0,0,0,0,0,1,50.483860050000004,-104.56455595
