,Unnamed: 0,cost,address,bedrooms,bathrooms,hydro,heat,water,parking,pet,size,furnished,ac,smoking,has_den,has_unitType_Apartment,has_unitType_Basement,has_unitType_Condo,has_unitType_Duplex/Triplex,has_unitType_House,has_unitType_Townhouse,has_wifiInfo_Internet,has_wifiInfo_Cable,agreement_is_annual,has_appliances_Dishwasher,has_appliances_Fridge / Freezer,has_appliances_Laundry (In Building),has_appliances_Laundry (In Unit),has_amenities_24 Hour Security,has_amenities_Bicycle Parking,has_amenities_Concierge,has_amenities_Elevator in Building,has_amenities_Gym,has_amenities_Pool,has_amenities_Storage Space,has_outdoor_Balcony,has_outdoor_Yard,latitude,longitude
0,0,933,"22-41 Munroe Pl., Regina, SK, S4S 6A7",2,1.0,0,1,1,1,1,860,0,1,1,0,1,0,0,0,0,0,0,1,1,0,1,1,0,1,0,0,0,0,0,1,1,0,50.414254,-104.599335
1,1,850,"2175  Rae Street, Regina, SK, S4T 2E8",1,1.0,0,1,1,0,1,380,0,1,0,0,1,0,0,0,0,0,0,0,1,0,1,1,0,0,0,0,0,0,0,0,0,0,50.445121,-104.621029
2,2,799,"1424 Victoria Ave, Regina, SK, S4P 0P3",1,1.0,0,1,1,0,1,520,0,0,0,0,1,0,0,0,0,0,0,0,1,0,1,0,0,0,0,0,0,0,0,0,0,0,50.447245,-104.600769
3,3,814,"3864 Rae Street, Regina, SK, S4S 3A1",1,1.0,0,1,1,0,1,675,0,0,0,0,1,0,0,0,0,0,0,0,1,0,1,0,0,0,0,0,0,0,0,0,0,0,50.41858,-104.621018
4,4,1030,"2240 Robinson Street, Regina, SK, S4T 2P9",2,1.0,0,1,1,0,1,870,0,1,0,0,1,0,0,0,0,0,0,0,1,0,1,1,0,0,0,0,0,0,0,0,0,0,50.4436708,-104.6239575
5,5,1495,"S4X, Canada",1,1.0,1,1,1,1,0,625,1,1,0,0,1,0,0,0,0,0,0,1,0,0,1,0,1,1,0,0,0,0,0,0,1,1,50.5068,-104.674
6,6,1199,"#109  5301 Universal Crescent, S4W0L2, Regina, SK",1,1.0,0,1,1,1,0,786,0,1,0,1,0,0,1,0,0,0,0,0,1,1,1,0,1,0,0,0,1,1,0,1,1,0,50.436949,-104.649662
7,7,1460,"5500 Parliament Avenue, Regina, SK, S4W 0T3",2,2.0,0,1,1,0,1,997,0,1,0,0,1,0,0,0,0,0,0,0,1,0,1,0,0,0,0,0,1,1,0,0,1,0,50.4157804,-104.6364215
8,8,799,"1424 Victoria Ave, Regina, SK, S4P 0P3",1,1.0,0,1,1,0,1,520,0,0,0,0,1,0,0,0,0,0,0,0,1,0,1,0,0,0,0,0,0,0,0,0,0,0,50.447245,-104.600769
9,9,849,"3525 Avonhurst Dr, Regina, SK, S4R 3K2",2,1.0,0,1,1,0,1,763,0,0,0,0,1,0,0,0,0,0,0,0,1,0,1,1,0,0,0,0,0,0,0,0,0,1,50.474007,-104.632346
10,10,999,"2835 Parliament Ave, Regina, SK, S4S 2L1",2,1.0,0,1,1,0,1,910,0,0,0,0,1,0,0,0,0,0,0,0,1,0,1,0,0,0,0,0,0,0,0,0,0,0,50.415392,-104.621739
11,11,799,"3940 Retallack Street, Regina, SK, S4S 3B9",1,1.0,0,1,1,0,1,675,0,0,0,0,1,0,0,0,0,0,0,0,1,0,1,0,0,0,0,0,0,0,0,0,0,0,50.417045,-104.622474
12,12,1074,"4100 Retallack Street, Regina, SK, S4S 3C3",2,1.0,0,1,1,0,1,720,0,0,0,0,1,0,0,0,0,0,0,0,1,0,1,0,0,0,0,0,0,0,0,0,0,0,50.4143456,-104.6224529
13,13,800,"2353 Ottawa St, Regina, SK S4P 1R2, Canada",1,1.0,0,1,1,2,0,700,0,0,0,0,1,0,0,0,0,0,0,0,1,0,1,1,0,0,0,0,0,0,0,0,0,0,50.4424372,-104.6005612
14,14,1475,"1942 Elphinstone St., S4T 3N2, Regina, SK",2,1.0,0,0,0,2,0,1000,0,0,0,0,0,0,0,0,1,0,0,0,1,1,1,0,1,0,0,0,0,0,0,0,0,1,50.448749,-104.631126
15,15,800,"144 1st Ave north, S3N 1J8, Yorkton, SK",1,1.0,0,1,1,1,0,900,0,0,0,0,1,0,0,0,0,0,0,0,0,0,1,1,0,0,0,0,0,0,0,0,0,0,51.216272,-102.462937
16,16,1279,"193 Lockwood Rd., Regina, SK, S4S 6G9",1,1.0,1,1,1,0,1,705,0,1,1,0,1,0,0,0,0,0,0,1,1,0,1,1,0,1,0,0,0,0,0,0,1,0,50.4016987,-104.6255671
17,17,754,"4039 Retallack Street, Regina, SK, S4S 3C2",1,1.0,0,1,1,0,1,480,0,0,0,0,1,0,0,0,0,0,0,0,1,0,1,0,0,0,0,0,0,0,0,0,0,0,50.415345,-104.622466
18,18,850,", Regina S4t3s2 SK, Canada",2,1.0,0,0,0,0,0,900,0,0,0,0,0,0,0,0,1,0,0,0,1,0,1,0,0,0,0,0,0,0,0,0,0,1,50.45605,-104.632609
19,19,1180,"10 Michener Drive, Regina, SK, S4V 1R2",2,1.0,0,1,1,0,1,975,0,1,0,0,1,0,0,0,0,0,0,0,1,1,1,0,1,0,0,0,0,1,0,0,1,0,50.431639,-104.558772
20,20,1085,"6725 Rochdale Blvd, Regina, SK, S4X 2Z2",2,1.0,0,1,1,0,1,798,0,1,0,0,1,0,0,0,0,0,0,0,1,1,1,0,1,0,0,0,0,1,0,0,0,0,50.4948651,-104.677316
21,21,1487,"3005  Trombley St, Regina, SK, S4V 3W6",3,2.0,0,0,0,0,1,1074,0,1,0,0,1,0,0,0,0,0,1,0,1,1,1,1,1,0,0,0,0,0,0,0,1,1,50.4294124,-104.5137686
22,22,940,"5659 Campling Avenue, Regina, SK, S4W 0P8",1,1.0,0,0,0,0,1,576,0,1,0,0,1,0,0,0,0,0,0,0,1,1,1,0,1,0,0,0,0,0,0,0,0,1,50.436949,-104.649662
23,23,1250,"5663 Mitchinson Way, Regina, SK, S4W 0P9",3,1.0,0,0,0,0,1,1000,0,1,0,0,1,0,0,0,0,0,0,0,1,1,1,0,1,0,0,0,0,0,0,0,0,1,50.436949,-104.649662
24,24,1465,"3367 Green Poppy Street, Regina, SK, S4W 0G3",2,1.0,0,0,0,1,1,807,0,1,0,0,0,0,0,0,0,1,0,0,1,1,1,0,1,0,0,0,0,0,0,0,1,0,50.436949,-104.649662
25,25,1295,"5300 Parliament Ave, Regina, SK, S4W 0R5",2,1.0,0,0,1,1,1,694,0,1,0,0,1,0,0,0,0,0,0,0,1,1,1,0,1,0,0,0,1,1,0,0,1,0,50.44065,-104.649629
26,26,800,"405 Moltke Ave, Langenburg, SK S0A 2A0, Canada",1,1.0,1,1,1,2,0,768,1,1,0,0,0,1,0,0,0,0,0,0,0,1,1,1,0,0,0,0,0,0,0,0,0,1,50.981364,-101.69037
27,27,2200,"2300 Broad Street, S4P1Y8, Regina, SK",2,2.0,0,1,1,1,0,1400,0,1,0,1,0,0,1,0,0,0,0,0,1,1,1,0,1,1,1,0,1,1,0,1,1,0,50.442326,-104.606652
28,28,1020,"445  Retallack Street, Regina, SK, S4R 3N4",2,1.0,0,1,1,0,1,1000,0,1,0,0,1,0,0,0,0,0,0,0,1,0,1,1,0,0,0,0,0,0,0,0,0,0,50.4714575,-104.622552
29,29,950,"2630  6th Avenue N, Regina, SK, S4R 0P2",1,1.0,0,1,1,0,1,631,0,1,0,0,1,0,0,0,0,0,0,0,1,0,1,1,0,0,0,0,0,0,0,0,1,0,50.478954,-104.618794
30,30,900,"2311 Park Street, S4N 2G9, Regina, SK",1,1.0,1,1,1,1,1,500,1,0,0,0,0,1,0,0,0,0,1,0,1,1,1,1,0,0,0,0,0,0,0,0,0,1,50.443819,-104.572173
31,31,620,"15  Darlington St. E, Yorkton, SK, S3N 0C1",1,1.0,0,1,1,0,1,290,0,0,0,0,1,0,0,0,0,0,0,0,1,0,1,1,0,0,0,0,0,0,0,0,0,1,51.21642,-102.462835
32,32,849,"3525 Avonhurst Dr, Regina, SK, S4R 3K2",2,1.0,0,1,1,0,1,763,0,0,0,0,1,0,0,0,0,0,0,0,1,0,1,1,0,0,0,0,0,0,0,0,0,1,50.474007,-104.632346
33,33,799,"1424 Victoria Ave, Regina, SK, S4P 0P3",1,1.0,0,1,1,0,1,520,0,0,0,0,1,0,0,0,0,0,0,0,1,0,1,0,0,0,0,0,0,0,0,0,0,0,50.447245,-104.600769
34,34,1295,"5501 Prefontaine Ave, Regina, SK, S4W 0S3",2,1.0,0,1,1,0,1,840,0,1,0,0,1,0,0,0,0,0,0,0,1,1,1,0,1,0,0,0,1,1,0,0,1,0,50.439672,-104.648915
35,35,1750,"14 Milford Crescent, Regina, SK S4N 1K7, Canada",3,2.0,0,0,0,3,1,1300,0,1,0,1,0,0,0,0,1,0,0,0,1,1,1,1,1,0,0,0,0,0,0,0,1,1,50.452663,-104.5512115
36,36,1000,"69  Kleisinger Cres, Regina, SK, S4R 6Z4",2,1.0,0,1,1,0,1,761,0,1,0,0,1,0,0,0,0,0,0,0,1,0,1,1,0,0,0,0,0,0,0,0,1,0,50.484498,-104.607979
37,37,800,"399  Parkview Road, Yorkton, SK, S3N 2L4",2,1.0,0,1,1,0,1,743,0,0,0,0,0,0,0,0,1,0,0,0,1,0,1,1,0,0,0,0,0,0,0,0,1,0,51.200767,-102.487883
38,38,650,"2901  5th Ave, Regina, SK, S4T 0L3",1,1.0,0,1,1,0,1,308,0,0,0,0,1,0,0,0,0,0,0,0,1,0,1,1,0,0,0,0,0,0,0,0,0,0,50.461418,-104.623503
39,39,850,"1454  Rae St, Regina, SK, S4T 2C5",2,1.0,0,1,1,0,1,684,0,1,0,0,1,0,0,0,0,0,0,0,1,0,1,1,0,0,0,0,0,0,0,0,1,0,50.455924,-104.621176
40,40,800,"1233 3rd St, Estevan, SK S4A 0R8, Canada",2,1.0,0,1,1,1,1,1000,0,0,0,1,0,0,0,0,0,1,0,0,1,0,0,1,0,0,0,0,0,0,0,0,0,1,49.1396143,-102.9956826
41,41,700,"173 Procter Pl, Regina, SK S4S 4G1, Canada",1,1.0,0,1,1,1,0,300,0,0,0,0,1,0,0,0,0,0,0,0,0,0,1,1,0,1,1,0,0,0,0,0,0,0,50.4165916,-104.6131414
42,42,1100,"67 Angus Rd, Regina, SK S4R 3L1, Canada",2,1.0,0,1,1,1,0,1140,0,1,0,0,1,0,0,0,0,0,0,0,0,1,1,1,0,1,0,0,1,0,0,1,1,0,50.479036,-104.620408
43,43,935,"505 Rose St, Regina, SK S4R 1Z4, Canada",2,1.0,0,1,1,1,0,800,0,1,0,0,1,0,0,0,0,0,0,0,0,0,1,1,0,0,0,0,0,0,0,0,1,0,50.470701,-104.607933
44,44,1295,"4665 Skinner Cres, Regina, SK S4W 0A3, Canada",1,1.0,0,0,0,1,0,800,1,1,0,1,1,0,0,0,0,0,0,0,1,0,0,0,1,0,0,0,0,0,0,0,0,1,50.4122278,-104.6496927
45,45,1050,"5310 Universal Cr., S4W 0K8, Regina, SK",2,1.0,0,0,0,1,0,1033,0,0,0,0,0,1,0,0,0,0,0,0,1,1,1,0,1,0,0,0,0,0,0,0,1,0,50.436949,-104.649662
46,46,1198,"1701 Horizons Way, Regina, SK, S4Y 0G5",2,2.0,0,0,1,1,1,913,0,1,0,0,1,0,0,0,0,0,0,0,1,1,1,0,1,0,0,0,1,1,0,0,1,0,50.476789,-104.695286
47,47,1298,"1251 N Galloway Street, Regina, SK, S4X 0M6",2,1.0,0,1,1,1,1,859,0,1,0,0,1,0,0,0,0,0,0,0,1,1,1,0,1,0,0,0,1,0,0,0,1,0,50.49048,-104.671679
48,48,1600,"5500 Mitchinson Way, Regina, SK S4W 0N9, Canada",2,2.0,1,1,1,2,0,900,0,1,0,1,0,0,1,0,0,0,0,0,1,1,0,0,1,0,0,0,1,0,0,0,1,0,50.436949,-104.649662
49,49,1148,"41 Munroe Place, Regina, SK, S4S 6A7",2,1.0,0,1,1,0,1,850,0,1,1,0,1,0,0,0,0,0,0,1,1,0,1,0,1,1,0,0,0,0,0,1,1,1,50.414254,-104.599335
50,50,1022,"22-41 Munroe Pl., Regina, SK, S4S 6A7",2,1.0,0,1,1,0,1,860,0,0,1,0,1,0,0,0,0,0,0,1,1,0,1,1,0,1,0,0,0,0,0,1,1,0,50.414254,-104.599335
51,51,1268,"700 Gladmer Pk., Regina, SK, S4P 2W9",3,1.0,0,0,0,1,1,1056,0,0,1,0,0,0,0,0,0,1,0,1,1,1,1,0,1,0,0,0,0,0,0,0,1,1,50.437079,-104.605561
52,52,1800,"2 Donahue Ave, Regina, SK S4R 3Y5, Canada",3,1.0,1,1,1,2,0,1000,1,1,0,0,0,0,0,0,1,0,1,1,0,1,1,1,0,0,0,0,0,0,0,0,0,1,50.480643,-104.632863
53,53,1160,"3367 Green Poppy Street, Regina, SK, S4W 0G3",1,1.0,0,0,0,1,1,529,0,1,0,0,0,0,0,0,0,1,0,0,1,1,1,0,1,0,0,0,0,0,0,0,1,0,50.436949,-104.649662
54,54,1285,"3928 Green Falls Drive, Regina, SK, S4V 3M1",2,1.0,0,1,1,0,1,840,0,1,0,0,1,0,0,0,0,0,0,0,0,1,1,0,1,0,0,0,1,1,1,0,1,0,50.431637,-104.550761
55,55,1190,"5929 Rochdale Blvd, Regina, SK, S4X 0M3",2,1.0,0,0,1,0,1,691,0,1,0,0,1,0,0,0,0,0,0,0,1,1,1,0,1,0,0,0,1,0,0,0,1,0,50.49048,-104.671679
56,56,1190,"4013 Harbour Landing Dr, Regina, SK, S4W 0E5",2,1.0,0,0,1,0,1,691,0,1,0,0,1,0,0,0,0,0,0,0,1,1,1,0,1,0,0,0,1,1,1,0,1,0,50.430928,-104.6643399
57,57,1240,"5601 Gordon Road, Regina, SK, S4W 0M6",1,1.0,0,0,1,0,1,780,0,1,0,0,1,0,0,0,0,0,0,0,1,1,1,0,1,0,0,0,1,0,0,0,1,0,50.436949,-104.649662
58,58,1119,"Centennial St, Regina, SK S4S 6W3, Canada",2,1.0,0,1,1,1,1,860,1,1,1,0,1,0,0,0,0,0,1,1,0,0,0,1,0,0,0,0,0,1,0,1,1,0,50.4130675,-104.5989765
59,59,990,"653 Donald St, Esterhazy, Saskatchewan,, Esterhazy S0A 0X0 SK",2,1.0,0,0,0,2,0,900,0,0,0,1,0,0,0,1,0,0,0,0,1,0,1,0,1,0,0,0,0,0,0,0,0,1,50.687428,-102.017606
60,60,1300,"1839 Scarth St, S4P 2G9, Regina, SK",1,1.0,1,1,1,1,1,900,1,1,0,0,1,0,0,0,0,0,1,1,0,1,1,0,1,0,0,0,0,0,0,0,0,0,50.450304,-104.61082
61,61,923,"405 Rae St, Regina, SK S4R 3M3, Canada",2,1.0,0,1,1,1,0,792,0,1,0,0,1,0,0,0,0,0,0,0,1,0,1,1,0,1,1,0,0,0,0,1,1,0,50.47159,-104.620938
62,62,955,"34 Spence Street, Regina, SK, S4S 4H4",1,1.0,0,1,1,0,1,675,0,1,0,0,1,0,0,0,0,0,0,0,1,0,1,1,0,0,0,0,0,0,0,0,1,0,50.4132335,-104.6154105
63,63,600,"355  Northview Rd, Yorkton, SK, S3N 2X6",1,1.0,0,1,1,0,1,362,0,1,0,0,1,0,0,0,0,0,0,0,1,0,1,1,0,0,0,0,0,0,0,0,1,0,51.202416,-102.485187
64,64,700,"119 Broadway St W, Yorkton, SK S3N 0M3, Canada",1,1.0,0,0,1,1,1,350,0,0,0,0,1,0,0,0,0,0,0,0,1,0,1,0,1,0,0,0,0,0,0,0,0,1,51.210295,-102.469926
65,65,1060,"34 Spence Street, Regina, SK, S4S 4H4",2,1.0,0,1,1,0,1,800,0,1,0,0,1,0,0,0,0,0,0,0,1,0,1,1,0,0,0,0,0,0,0,0,1,0,50.4132335,-104.6154105
66,66,940,"331  Broad Street North, Regina, SK, S4R 2X8",1,1.0,0,1,1,0,1,659,0,1,0,0,1,0,0,0,0,0,0,0,1,0,1,1,0,0,0,0,0,0,0,0,1,0,50.4809322,-104.6064483
67,67,1285,"3928 Green Falls Drive, Regina, SK, S4V 3M1",2,1.0,0,1,1,0,1,840,0,1,0,0,1,0,0,0,0,0,0,0,0,1,1,0,1,0,0,0,1,1,1,0,1,0,50.431637,-104.550761
68,68,1295,"5501 Prefontaine Ave, Regina, SK, S4W 0S3",2,1.0,0,1,1,0,1,840,0,1,0,0,1,0,0,0,0,0,0,0,1,1,1,0,1,0,0,0,1,1,0,0,1,0,50.439672,-104.648915
69,69,1300,"331  Broad Street North, Regina, SK, S4R 2X8",2,2.0,0,1,1,0,1,832,0,1,0,0,1,0,0,0,0,0,0,0,1,0,1,1,0,0,0,0,0,0,0,0,1,0,50.4809322,-104.6064483
70,70,700,"119 Broadway St W, Yorkton, SK S3N 0M3, Canada",1,1.0,0,0,1,1,1,350,0,0,0,0,1,0,0,0,0,0,0,0,1,0,1,0,1,0,0,0,0,0,0,0,0,1,51.210295,-102.469926
71,71,700,"119 Broadway St W, Yorkton, SK S3N 0M3, Canada",1,1.0,0,0,1,1,1,350,0,0,0,0,1,0,0,0,0,0,0,0,1,0,1,0,1,0,0,0,0,0,0,0,0,1,51.210295,-102.469926
72,72,700,"119 Broadway St W, Yorkton, SK S3N 0M3, Canada",1,1.0,0,0,1,1,1,350,0,0,0,0,1,0,0,0,0,0,0,0,1,0,1,0,1,0,0,0,0,0,0,0,0,1,51.210295,-102.469926
73,73,700,"119 Broadway St W, Yorkton, SK S3N 0M3, Canada",1,1.0,0,0,1,1,1,350,0,0,0,0,1,0,0,0,0,0,0,0,1,0,1,0,1,0,0,0,0,0,0,0,0,1,51.210295,-102.469926
74,74,700,"119 Broadway St W, Yorkton, SK S3N 0M3, Canada",1,1.0,0,0,1,1,1,350,0,0,0,0,1,0,0,0,0,0,0,0,1,0,1,0,1,0,0,0,0,0,0,0,0,1,51.210295,-102.469926
75,75,920,"26 Lorne Place, Regina, SK, S4R 8B3",1,1.0,0,1,1,0,1,607,0,1,0,0,1,0,0,0,0,0,0,0,1,1,1,1,0,0,0,0,0,0,0,0,1,0,50.48448,-104.61372
76,76,1045,"6725 Rochdale Blvd, Regina, SK, S4X 2Z2",1,1.0,0,1,1,0,1,583,0,1,0,0,1,0,0,0,0,0,0,0,1,1,1,0,1,0,0,0,0,1,0,0,0,0,50.4948651,-104.677316
77,77,1200,", S0G 3Z0, Pilot Butte, SK",2,1.0,0,0,0,2,0,786,0,1,0,0,0,0,0,0,1,0,0,0,1,1,1,0,1,0,0,0,0,0,0,0,0,1,50.413607,-104.434654
78,78,950,"4462 Albulet Drive, S4W0L5, Regina, SK",1,1.0,1,1,1,1,0,700,0,0,0,0,0,1,0,0,0,0,1,0,1,1,1,0,1,0,0,0,0,0,0,0,0,0,50.409183,-104.658395
79,79,800,"S4T3M6, Canada",2,1.0,0,0,0,1,0,800,0,0,0,0,0,0,0,1,0,0,0,0,1,0,1,0,1,0,0,0,0,0,0,0,0,0,50.456622,-104.631156
80,80,920,", Regina S4P 2M4 SK",1,1.0,0,1,1,0,0,555,0,0,0,0,0,0,1,0,0,0,0,0,1,1,1,1,1,0,0,0,0,0,0,0,1,0,50.446974,-104.613678
81,81,975,"125 Froom Crescent, Regina, SK S4N 1S8, Canada",2,1.0,0,1,1,1,1,800,0,1,0,0,1,0,0,0,0,0,0,0,0,0,1,1,0,0,0,0,0,0,0,0,0,0,50.445507,-104.568106
82,82,800,"204 Keeler St, Pangman, SK S0C 2C0, Canada",2,2.0,0,0,0,2,0,700,0,1,0,0,0,0,0,0,1,0,0,0,0,1,1,0,1,0,0,0,0,0,0,0,0,1,49.642637,-104.657236
83,83,849,"4050 Rae Street, Regina, SK, S4S 3A3",1,1.0,0,1,1,0,1,675,0,0,0,0,1,0,0,0,0,0,0,0,1,0,1,0,0,0,0,0,0,0,0,0,0,0,50.4152497,-104.6210282
84,84,884,"801 Grey Street, Regina, SK, S4T 5G8",2,1.0,0,1,1,0,1,720,0,0,0,0,1,0,0,0,0,0,0,0,1,0,1,0,0,0,0,0,0,0,0,0,0,0,50.464843,-104.655319
85,85,849,"3955 Robinson Street, Regina, SK, S4S 3C7",1,1.0,0,1,1,0,1,675,0,0,0,0,1,0,0,0,0,0,0,0,1,0,1,0,0,0,0,0,0,0,0,0,0,0,50.416219,-104.623885
86,86,879,"2155 Rose Street, Regina, SK, S4P 2A5",1,1.0,0,1,1,0,1,675,0,0,0,0,1,0,0,0,0,0,0,0,1,0,1,0,0,0,0,0,0,0,0,0,0,0,50.444226,-104.6079823
87,87,1100,"420 Toronto Street, Regina, SK, S4R 1M4",2,1.0,0,0,0,0,0,900,0,0,0,0,1,0,0,0,0,0,0,0,1,1,1,0,0,0,0,0,0,0,0,0,0,0,50.472303,-104.599067
88,88,980,"2131 Angus Street, Regina, SK, S4T 2A1",1,1.0,0,1,1,0,1,615,0,1,0,0,1,0,0,0,0,0,0,0,1,0,1,1,0,0,0,0,0,0,0,0,1,0,50.445149,-104.619638
89,89,1020,"453 Retallack Street, Regina, SK, S4R 3N4",2,1.0,0,1,1,0,1,1000,0,1,0,0,1,0,0,0,0,0,0,0,1,0,1,1,0,0,0,0,0,0,0,0,0,0,50.4714575,-104.622552
90,90,1120,"2657  Lacon Street, Regina, SK, S4N 2A5",2,1.0,0,1,1,0,1,773,0,1,0,0,1,0,0,0,0,0,0,0,1,0,1,1,0,0,0,0,0,0,0,0,0,0,50.437545,-104.569288
91,91,750,"2104  14th Ave, Regina, SK, S4P 0X6",1,1.0,0,1,1,0,1,343,0,0,0,0,1,0,0,0,0,0,0,0,1,0,1,1,0,0,0,0,0,0,0,0,0,0,50.4440233,-104.6158508
92,92,1500,"2315 McIntyre St, Regina, SK S4P 3Y8, Canada",2,1.0,1,1,1,1,0,700,0,1,0,0,0,0,1,0,0,0,0,0,1,0,1,0,1,0,0,0,0,0,0,0,1,0,50.4424462,-104.6166159
93,93,2300,"3117 Trombley Street, Regina, SK, S4V 3S1",3,2.5,0,0,0,0,1,1186,0,1,0,0,0,0,0,0,1,0,0,0,1,1,1,0,1,0,0,0,0,0,0,0,0,1,50.428575,-104.512849
94,94,1150,"3068 Greenbank Road, Regina, SK, S4V 3R7",2,1.0,0,0,0,0,1,1000,0,1,0,0,1,0,0,0,0,0,0,0,1,1,1,0,1,0,0,0,0,0,0,0,0,1,50.428655,-104.520876
95,95,1150,"3076 George Street, Regina, SK, S4V 3X3",2,1.0,0,0,0,0,1,1000,0,1,0,0,1,0,0,0,0,0,0,0,1,1,1,0,1,0,0,0,0,0,0,0,0,1,50.428658,-104.52226
96,96,1140,"3928 Green Falls Drive, Regina, SK, S4V 3M1",1,1.0,0,1,1,0,1,615,0,1,0,0,1,0,0,0,0,0,0,0,0,1,1,0,1,0,0,0,1,1,1,0,1,0,50.431637,-104.550761
97,97,1190,"4013 Harbour Landing Dr, Regina, SK, S4W 0E5",2,1.0,0,0,1,0,1,691,0,1,0,0,1,0,0,0,0,0,0,0,1,1,1,0,1,0,0,0,1,1,1,0,1,0,50.430928,-104.6643399
98,98,1070,"4013 Harbour Landing Dr, Regina, SK, S4W 0E5",1,1.0,0,0,1,0,1,546,0,1,0,0,1,0,0,0,0,0,0,0,1,1,1,0,1,0,0,0,1,1,1,0,1,0,50.430928,-104.6643399
99,99,1060,"5929 Rochdale Blvd, Regina, SK, S4X 0M3",1,1.0,0,0,1,0,1,566,0,1,0,0,1,0,0,0,0,0,0,0,1,1,1,0,1,0,0,0,1,0,0,0,1,0,50.49048,-104.671679
100,100,1140,"5501 Prefontaine Ave, Regina, SK, S4W 0S3",1,1.0,0,1,1,0,1,615,0,1,0,0,1,0,0,0,0,0,0,0,1,1,1,0,1,0,0,0,1,1,0,0,1,0,50.439672,-104.648915
101,101,1230,"5601 Gordon Road, Regina, SK, S4W 0M6",2,1.0,0,0,1,0,1,825,0,1,0,0,1,0,0,0,0,0,0,0,1,1,1,0,1,0,0,0,1,0,0,0,1,0,50.436949,-104.649662
102,102,1215,"5601 Gordon Road, Regina, SK, S4W 0M6",1,1.0,0,0,1,0,1,780,0,1,0,0,1,0,0,0,0,0,0,0,1,1,1,0,1,0,0,0,1,0,0,0,1,0,50.436949,-104.649662
103,103,1295,"5501 Prefontaine Ave, Regina, SK, S4W 0S3",2,1.0,0,1,1,0,1,840,0,1,0,0,1,0,0,0,0,0,0,0,1,1,1,0,1,0,0,0,1,1,0,0,1,0,50.439672,-104.648915
104,104,1300,"224 Osler St, Regina, SK S4R 1V4, Canada",3,1.0,1,1,1,1,1,950,0,0,0,0,0,0,0,0,1,0,0,0,1,0,1,1,0,0,0,0,0,0,0,0,0,1,50.474738,-104.605018
105,105,1300,"2271 Argyle Street, S4T 3T2, Regina, SK",2,1.0,0,0,0,2,0,800,0,0,0,0,0,0,0,0,1,0,0,0,1,1,1,1,0,0,0,0,0,0,0,0,0,1,50.44321,-104.632613
106,106,1500,"1132 Gordon street, S0G3N0, Moosomin, SK",5,2.0,0,0,0,3,0,2000,0,1,0,0,0,0,0,0,1,0,0,0,1,1,1,0,1,0,0,0,0,0,0,0,0,1,50.149485,-101.66703
107,107,933,"22-41 Munroe Pl., Regina, SK, S4S 6A7",2,1.0,0,1,1,1,1,860,0,1,1,0,1,0,0,0,0,0,0,1,1,0,1,1,0,1,0,0,0,0,0,1,1,0,50.414254,-104.599335
108,108,1079,"191 Rink Ave., Regina, SK, S4R 7V3",2,1.0,0,1,1,1,1,850,0,0,1,0,1,0,0,0,0,0,0,1,1,0,1,1,0,1,0,0,0,0,0,1,1,0,50.487601,-104.653409
109,109,1350,"5300 Parliament Ave, Regina, SK, S4W 0R5",2,1.0,0,0,1,1,1,777,0,1,0,0,1,0,0,0,0,0,0,0,1,1,1,0,1,0,0,0,1,1,0,0,1,0,50.44065,-104.649629
110,110,825,"1900 Garnet St, Regina, SK S4T 2Z4, Canada",1,1.0,0,1,1,1,0,550,0,0,0,0,1,0,0,0,0,0,0,0,1,0,1,1,0,0,0,0,0,0,0,0,0,1,50.448014,-104.62698
111,111,1800,"417 St Mary St, Esterhazy, SK S0A 0X0, Canada",3,1.5,1,1,1,2,1,1400,1,1,0,0,0,0,0,1,0,0,1,1,1,1,1,0,1,0,0,0,0,0,0,0,1,1,50.687428,-102.017606
112,112,700,"113 1 St W, Carnduff, SK S0C 0S0, Canada",3,1.0,0,0,1,2,0,840,0,0,0,0,0,0,0,0,1,0,0,0,0,0,1,1,0,0,0,0,0,0,0,0,0,1,49.037822,-101.687175
113,113,1000,"S4N0T9, Canada",2,1.0,0,1,1,1,0,900,0,1,0,0,1,0,0,0,0,0,0,0,0,0,1,1,0,0,1,0,0,0,0,0,0,1,50.44551,-104.570346
114,114,1050,"2840 Mcara Street, Regina S4N2X4 SK",2,1.0,0,0,0,2,0,900,0,0,0,0,0,0,0,1,0,0,0,0,1,1,1,0,1,0,0,0,0,0,0,0,0,1,50.4338655,-104.5821205
115,115,2200,", S4P3V7, Regina, SK",4,2.0,0,0,0,2,0,2000,1,1,0,0,0,0,0,0,1,0,1,1,0,1,1,0,1,0,0,0,0,0,0,0,0,1,50.451732,-104.613875
116,116,625,", Regina S4P1J9 SK, Canada",1,1.0,0,0,0,0,0,500,0,0,0,1,0,0,0,0,1,0,0,0,0,0,0,0,1,0,0,0,0,0,0,0,0,1,50.446999,-104.596183
117,117,750,"4216 Castle Rd, Regina, SK S4S 4W1, Canada",1,1.0,1,1,1,1,1,450,1,1,0,1,0,1,0,0,0,0,1,1,1,1,1,1,1,0,0,0,0,0,0,0,0,0,50.411003,-104.600045
118,118,1150,"19 Irwin Ave, Yorkton, SK S3N 2E4, Canada",3,1.0,0,0,0,1,1,850,0,0,0,0,0,0,0,0,1,0,0,0,0,0,0,1,0,0,0,0,0,0,0,0,0,1,51.2119755,-102.4787015
119,119,1800,"3630 Haughton Rd, Regina, SK S4V 1P1, Canada",2,2.0,1,1,1,1,0,1100,1,1,0,0,0,0,1,0,0,0,1,1,0,1,1,0,1,1,1,0,1,0,0,0,1,0,50.432902,-104.544364
120,120,975,"2022 Edgar Street, Regina S4N3K6 SK",2,1.0,0,0,0,2,1,700,0,0,0,0,0,0,0,0,1,0,0,0,1,0,0,0,1,0,0,0,0,0,0,0,0,1,50.446731,-104.588025
121,121,1400,"1863 Rae Street, S4T 2E3, Regina, SK",2,1.5,0,0,0,1,1,846,0,1,0,0,0,0,1,0,0,0,0,0,1,1,1,0,1,1,1,0,1,0,0,1,1,0,50.4504055,-104.621068
122,122,1950,"2046 Alexandra St, Regina, SK S4T 4P5, Canada",4,2.5,0,0,0,3,0,1575,0,1,0,0,0,0,0,0,1,0,0,0,1,1,1,0,1,0,0,0,0,0,0,0,1,1,50.447484,-104.643703
123,123,835,"1016 Eden St, Indian Head, SK S0G 2K0, Canada",2,1.0,0,1,1,1,0,750,0,1,0,0,1,0,0,0,0,0,0,1,0,0,1,1,0,0,1,0,0,0,0,1,1,1,50.360241,-103.668464
124,124,1250,"2167 Pasqua St, Regina, SK S4T 4M3, Canada",2,1.0,0,0,0,1,0,952,0,0,0,0,0,0,0,0,1,0,0,0,1,1,1,0,1,0,0,0,0,0,0,0,0,1,50.445408,-104.640952
125,125,827,"936 McIntosh St, Regina, SK S4T 5B4, Canada",2,1.0,0,1,1,1,0,700,0,0,0,0,1,0,0,0,0,0,1,0,1,0,1,1,0,0,0,0,0,0,0,1,0,1,50.464042,-104.6524745
126,126,1500,"S4P 2V2, Canada",2,2.0,1,1,1,1,0,1000,0,1,0,0,0,0,1,0,0,0,0,0,1,1,1,0,1,0,1,0,1,0,0,1,1,0,50.443474,-104.6180691
127,127,1200,"Carnduff, SK, Canada",2,2.0,1,0,1,3,0,959,1,1,0,0,0,0,1,0,0,0,0,0,0,1,1,1,1,0,1,0,0,0,0,1,1,1,49.1748399,-101.7972633
128,128,1750,"3500 13th Ave, Regina, SK S4T 1P9, Canada",3,3.0,0,0,0,1,1,1600,0,1,0,0,0,0,0,0,0,1,0,0,1,0,1,0,1,0,0,0,0,0,0,0,1,0,50.44553,-104.631306
129,129,699,"1424 Victoria Ave, Regina, SK, S4P 0P3",1,1.0,0,1,1,0,1,402,0,0,0,0,1,0,0,0,0,0,0,0,1,0,1,0,0,0,0,0,0,0,0,0,0,0,50.447245,-104.600769
130,130,1596,"1827 Albert St, Regina, SK, S4P 2S9",1,1.0,1,1,1,1,0,734,0,1,0,0,1,0,0,0,0,0,1,0,1,0,1,1,1,1,0,0,0,1,0,0,0,0,50.45003,-104.617991
131,131,1300,"4805 Liberty St, Regina, SK S4W 0K2, Canada",2,1.0,0,0,0,1,0,1000,0,1,0,1,0,0,0,0,1,0,0,0,1,1,1,0,1,0,0,0,0,0,0,0,0,1,50.436949,-104.649662
132,132,1200,"2125 Osler St, Regina, SK S4P 4G9, Canada",2,1.0,0,1,1,1,0,900,0,0,0,0,1,0,0,0,0,0,0,0,1,0,0,0,1,0,0,0,1,0,0,0,1,0,50.4451429,-104.604911
133,133,1300,"1545 Neville Dr, Regina, SK S4Z 0A7, Canada",2,1.0,0,1,1,1,0,750,0,1,0,0,0,0,0,0,0,1,0,0,1,1,1,0,1,0,0,0,0,0,0,0,1,0,50.4523907,-104.5316401
134,134,1100,"1039 Elliott St, Regina, SK S4N 3E7, Canada",3,1.0,0,0,0,0,0,700,0,0,0,0,0,1,0,0,0,0,0,0,1,0,0,0,1,0,0,0,0,0,0,0,0,0,50.4628349,-104.5864971
135,135,850,"2175  Rae Street, Regina, SK, S4T 2E8",1,1.0,0,1,1,0,1,380,0,1,0,0,1,0,0,0,0,0,0,0,1,0,1,1,0,0,0,0,0,0,0,0,0,0,50.445121,-104.621029
136,136,935,"505 Rose St, Regina, SK S4R 1Z4, Canada",2,1.0,0,1,1,1,0,800,0,1,0,0,1,0,0,0,0,0,0,0,0,0,1,1,0,0,0,0,0,0,0,0,1,0,50.470701,-104.607933
137,137,849,"3525 Avonhurst Dr, Regina, SK, S4R 3K2",2,1.0,0,1,1,0,1,763,0,0,0,0,1,0,0,0,0,0,0,0,1,0,1,1,0,0,0,0,0,0,0,0,0,1,50.474007,-104.632346
138,138,933,"22-41 Munroe Pl., Regina, SK, S4S 6A7",2,1.0,0,1,1,1,1,860,0,1,1,0,1,0,0,0,0,0,0,1,1,0,1,1,0,1,0,0,0,0,0,1,1,0,50.414254,-104.599335
139,139,800,"Waterloo Rd, Yorkton, SK S3N, Canada",2,1.0,0,0,0,2,0,1000,0,0,0,0,1,0,0,0,0,0,0,0,0,0,1,0,1,0,0,0,0,0,0,0,1,0,51.222697,-102.473675
140,140,1395,"614 3rd St, Estevan, SK S4A 0P6, Canada",2,1.0,0,1,1,2,1,950,1,1,0,0,0,0,1,0,0,0,0,0,0,1,1,1,1,1,1,1,1,0,0,1,1,0,49.134947,-102.985063
141,141,1000,"638 Isabelle St, Estevan, SK S4A 1P7, Canada",2,1.0,0,1,1,2,1,1025,0,1,0,0,1,0,0,0,0,0,0,0,1,1,1,0,1,1,0,1,1,0,0,1,1,0,49.150486,-102.984256
142,142,1195,"563 Sorlien Ave, Macoun, SK S0C 1P0, Canada",3,1.0,0,0,0,3,1,1000,0,0,0,0,0,0,0,0,1,0,0,0,1,0,0,0,1,0,0,0,0,0,0,0,1,1,49.22551,-103.351631
143,143,1275,"333 Lorne Street, S4R2J3, Regina, SK",2,2.0,0,0,0,2,1,1040,0,1,0,1,0,0,0,1,0,0,0,0,1,0,0,0,1,0,0,0,0,0,0,0,0,1,50.4731795,-104.6137
144,144,850,", Indian Head S0G2K0 SK, Canada",2,1.0,1,1,1,3,0,850,0,0,0,0,1,0,0,0,0,0,0,0,1,0,1,0,1,0,0,0,0,0,0,0,0,0,50.360241,-103.668464
145,145,2300,"1342 Elliott St, Saskatoon, SK S7N 0V8, Canada",5,2.0,0,0,0,1,0,1200,0,0,0,0,0,0,0,1,0,0,0,0,1,1,1,0,1,0,0,0,0,0,0,0,0,1,52.12783,-106.636169
146,146,850,", S4N1W3, Regina, SK",1,1.0,0,1,1,0,0,800,0,1,0,0,0,1,0,0,0,0,1,0,1,0,1,1,0,0,0,0,0,0,0,0,0,0,50.451702,-104.566421
147,147,985,"S4S6P8, Canada",2,1.0,1,1,1,1,0,909,1,1,0,1,1,0,0,0,0,0,1,1,1,0,1,1,0,1,1,0,0,0,0,1,1,0,50.415106,-104.597735
148,148,995,"2001 Cornwall St, Regina, SK S4P 3X9, Canada",1,1.0,0,1,1,1,0,630,0,1,0,0,1,0,0,0,0,0,0,0,1,0,1,1,0,1,0,0,1,1,0,0,1,0,50.447003,-104.612242
149,149,2300,"S4P2A6, Canada",5,4.0,0,0,0,3,1,2400,1,1,0,0,0,0,0,0,1,0,0,0,1,1,1,1,1,0,0,0,0,0,0,0,0,1,50.443711,-104.608098
150,150,1200,"1630 Badham Blvd, Regina S4P0J6 SK",1,1.0,1,1,1,0,0,500,1,1,0,0,0,1,0,0,0,0,1,1,1,1,1,1,0,0,0,0,0,0,0,0,1,0,50.4390256,-104.6047007
151,151,1400,"537 4th Ave N, Saskatoon, SK S7K 2M6, Canada",2,1.0,1,1,1,1,0,1008,0,1,0,0,1,0,0,0,0,0,0,0,1,1,1,0,1,0,0,0,1,0,0,0,1,0,52.1362006,-106.6569888
152,152,1000,", Regina s4x0m4 SK, Canada",1,1.0,1,1,1,0,0,650,0,1,0,0,0,1,0,0,0,0,1,0,0,0,1,0,1,0,0,0,0,0,0,0,0,0,50.5068188,-104.6740383
153,153,1275,"5000 Green Jewel Blvd, Regina, SK, S4V 3V2",1,1.0,0,1,1,0,1,662,0,1,0,0,1,0,0,0,0,0,0,0,1,1,1,0,1,0,0,0,1,1,0,0,1,0,50.418782,-104.511409
154,154,1295,"5501 Prefontaine Ave, Regina, SK, S4W 0S3",2,1.0,0,1,1,0,1,840,0,1,0,0,1,0,0,0,0,0,0,0,1,1,1,0,1,0,0,0,1,1,0,0,1,0,50.439672,-104.648915
155,155,1100,"411 Lorne St N, Regina, SK S4R 3B2, Canada",2,1.0,0,1,1,1,1,900,0,1,0,0,1,0,0,0,0,0,0,0,1,0,1,1,0,0,0,0,0,0,0,0,1,0,50.482144,-104.613617
156,156,1050,"1213 Empress St, Regina, SK S4T 5E4, Canada",2,1.0,0,1,1,1,0,700,0,1,0,0,1,0,0,0,0,0,0,0,0,1,1,1,0,0,0,0,0,0,0,0,0,0,50.460635,-104.653948
157,157,1464,"1066 Dorothy St., Regina, SK, S4X 0P4",2,2.0,0,1,1,0,1,916,0,1,1,0,1,0,0,0,0,0,0,1,1,1,1,0,1,1,0,0,1,0,0,0,1,0,50.4755343,-104.6826709
158,158,1464,"1070 Dorothy St., Regina, SK, S4X 0P5",2,2.0,0,1,1,0,1,915,0,1,1,0,1,0,0,0,0,0,0,1,1,1,1,0,1,1,0,0,1,0,0,0,1,0,50.477173,-104.682274
159,159,1124,"1060 Dorothy St., Regina, SK, S4X 3C5",2,1.0,0,0,1,0,1,877,0,1,1,0,1,0,0,0,0,0,0,1,1,1,1,0,1,1,0,0,0,1,0,0,1,1,50.476408,-104.68282
160,160,1800,"Green Rock Rd, Regina, SK S4V, Canada",3,2.5,0,0,0,2,0,1350,0,1,0,0,0,0,0,0,1,0,0,0,1,1,1,0,1,0,0,0,0,0,0,0,0,1,50.425383,-104.515726
161,161,980,"Wallace St, Regina, SK S4N 3Z9, Canada",2,1.0,1,1,1,2,0,700,1,0,0,0,0,1,0,0,0,0,1,0,1,0,0,1,0,0,0,0,0,0,0,0,0,1,50.450296,-104.593672
162,162,1050,"42 Spence St, Regina, SK S4S 4H4, Canada",1,1.0,0,0,1,1,0,634,0,1,0,0,0,0,1,0,0,0,0,0,1,1,1,1,0,0,0,0,0,0,0,0,1,0,50.4132335,-104.6154105
163,163,1445,"5200 Parliament Ave, Regina, SK S4W 0R5, Canada",2,2.0,0,0,1,2,1,857,0,1,0,1,1,0,0,0,0,0,0,0,0,0,1,0,1,0,0,0,1,1,0,0,1,0,50.44065,-104.649629
164,164,750,"2166 Robinson St, Regina, SK S4T 2P7, Canada",1,1.0,0,1,1,0,0,500,0,0,1,0,1,0,0,0,0,0,1,0,0,0,1,0,0,1,0,0,0,0,0,0,1,1,50.445412,-104.623953
165,165,1000,"4505 Rae St, Regina, SK S4S 3B2, Canada",2,1.5,0,1,1,2,0,1000,0,1,0,0,0,0,1,0,0,0,0,0,1,1,1,1,0,1,0,0,1,0,0,1,1,0,50.410088,-104.621026
166,166,1000,"Garnet St, Regina, SK, Canada, S4T 2Y2",2,1.0,0,0,0,2,0,840,1,0,0,0,0,0,0,0,1,0,0,0,1,0,1,1,1,0,0,0,0,0,0,0,0,1,50.4598637,-104.6268441
167,167,1300,"2030 Edgar Street, Regina, SK, S4N 3K6",3,1.5,0,0,0,0,1,1100,0,1,0,0,1,0,0,0,0,0,0,0,1,1,1,0,0,0,0,0,0,0,0,0,0,1,50.446731,-104.588025
168,168,1398,"502 University Park Drive, Regina, SK, S4V 3L8",2,1.0,0,1,1,1,1,954,0,1,0,1,1,0,0,0,0,0,0,0,1,1,1,0,1,0,0,0,1,0,0,0,1,0,50.431637,-104.550761
169,169,1319,"41 Munroe Place, Regina, SK, S4S 6A7",1,1.0,0,1,1,0,1,650,0,1,1,0,1,0,0,0,0,0,0,1,1,0,1,0,1,1,0,0,0,0,0,1,1,1,50.414254,-104.599335
170,170,1495,"1114-5200 Parliament Ave, Regina, SK S4W 0R5, Canada",2,2.0,1,1,1,1,0,900,1,1,0,1,0,0,1,0,0,0,0,0,1,1,1,1,1,1,1,1,1,1,0,1,1,0,50.44065,-104.649629
171,171,1089,"239 Centennial St, Regina, SK S4S 6T5, Canada",2,1.0,0,1,1,1,1,850,0,1,0,0,0,0,1,0,0,0,1,1,1,0,1,0,1,0,0,0,0,0,0,1,1,0,50.411899,-104.600421
172,172,1100,"Tutor Way, Regina, SK S4W 0G4, Canada",2,1.0,1,1,1,2,0,975,0,1,0,0,0,1,0,0,0,0,1,0,1,1,1,0,1,0,0,0,0,0,0,0,0,0,50.436949,-104.649662
173,173,1148,"41 Munroe Place, Regina, SK, S4S 6A7",2,1.0,0,1,1,0,1,850,0,1,1,0,1,0,0,0,0,0,0,1,1,0,1,0,1,1,0,0,0,0,0,1,1,1,50.414254,-104.599335
174,174,1295,"5501 Prefontaine Ave, Regina, SK, S4W 0S3",2,1.0,0,1,1,0,1,840,0,1,0,0,1,0,0,0,0,0,0,0,1,1,1,0,1,0,0,0,1,1,0,0,1,0,50.439672,-104.648915
175,175,1300,"331  Broad Street North, Regina, SK, S4R 2X8",2,2.0,0,1,1,0,1,832,0,1,0,0,1,0,0,0,0,0,0,0,1,0,1,1,0,0,0,0,0,0,0,0,1,0,50.4809322,-104.6064483
176,176,1100,", Regina South S4W0G4 SK, Canada",2,1.0,1,1,1,2,0,975,0,1,0,0,0,1,0,0,0,0,1,0,1,1,1,0,1,0,0,0,0,0,0,0,0,0,50.436949,-104.649662
177,177,1450,"5663 Mitchinson Way, Regina, SK, S4W 0P9",3,2.0,0,0,0,0,1,1000,0,1,0,0,1,0,0,0,0,0,0,0,1,1,1,0,1,0,0,0,0,0,0,0,0,1,50.436949,-104.649662
178,178,945,"2410  15th Avenue, Regina, SK, S4P 1A4",1,1.0,0,1,1,0,1,620,0,1,0,0,1,0,0,0,0,0,0,0,1,0,1,1,0,0,0,0,0,0,0,0,1,0,50.442441,-104.615924
179,179,1350,"48 B Nollet Ave, Regina S4T 7P9 SK",2,1.0,0,1,1,1,0,1000,0,1,0,0,0,0,1,0,0,0,0,0,1,1,1,0,1,0,0,0,0,0,0,0,1,0,50.481562,-104.668815
180,180,750,"3208 Westgate Ave, Regina, SK S4S 1B3, Canada",1,1.0,0,1,1,1,0,500,0,0,0,0,1,0,0,0,0,0,0,0,1,0,1,1,0,0,1,0,0,0,0,0,0,0,50.425468,-104.626472
181,181,1200,"1823 York St, Regina, SK S4T 4R3, Canada",2,1.0,0,0,0,2,0,750,0,0,0,0,0,0,0,0,1,0,0,0,1,1,1,0,1,0,0,0,0,0,0,0,0,1,50.450482,-104.645142
182,182,750,"80 Hanbidge Cres, Regina, SK, S4R 7C4",1,1.0,0,1,1,1,0,820,0,1,0,0,1,0,0,0,0,0,0,0,1,0,1,1,0,0,0,0,0,0,0,0,1,0,50.475494,-104.65827
183,183,800,"131 Angus Rd, Regina, SK S4R 5E4, Canada",1,1.0,1,1,1,1,1,650,0,1,0,0,1,0,0,0,0,0,0,0,0,0,0,1,0,0,0,0,0,0,0,0,1,0,50.483958,-104.6204335
184,184,1295,"Dakota Dr, Regina, SK S4Z, Canada",2,2.0,0,0,1,2,0,1160,0,1,0,0,0,0,1,0,0,0,0,0,1,1,1,0,1,0,0,0,1,0,0,1,1,0,50.45127,-104.53095
185,185,1590,"5290 Aerodrome Rd, Regina, SK S4W 0P4, Canada",3,1.5,0,0,0,1,0,1100,0,0,0,0,0,0,0,0,0,1,0,0,1,1,1,0,1,0,0,0,0,0,0,0,1,0,50.436949,-104.649662
186,186,1155,"539 Wascana St, Regina, SK S4R 4J3, Canada",2,1.0,0,0,0,0,0,1030,0,1,0,0,0,0,0,1,0,0,0,0,1,1,1,0,1,0,0,0,0,0,0,0,1,0,50.470744,-104.639845
188,188,1350,"2236 Wallace St, Regina, SK S4N 4A7, Canada",2,1.0,1,1,1,1,1,772,0,1,0,0,0,0,0,0,1,0,0,0,1,0,1,1,0,0,0,0,0,0,0,0,0,1,50.443887,-104.593764
189,189,1500,"Balmoral St, Yorkton, SK S3N, Canada",2,1.0,0,1,1,1,0,904,1,1,0,0,1,0,0,0,0,0,0,0,0,1,1,0,1,0,0,0,1,1,0,0,1,0,51.213453,-102.45588
190,190,1150,"1969 St John St, Regina, SK, S4P 1S3",2,1.0,0,0,0,0,1,747,0,0,0,0,1,0,0,0,0,0,0,0,1,0,1,0,0,0,0,0,0,0,0,0,0,0,50.448031,-104.601838
191,191,999,"1424 Victoria Ave, Regina, SK, S4P 0P3",2,1.0,0,1,1,0,1,585,0,0,0,0,1,0,0,0,0,0,0,0,1,0,1,0,0,0,0,0,0,0,0,0,0,0,50.447245,-104.600769
192,192,854,"3823 Retallack Street, Regina, SK, S4S 3B7",1,1.0,0,1,1,0,1,480,0,0,0,0,1,0,0,0,0,0,0,0,1,0,1,0,0,0,0,0,0,0,0,0,0,0,50.418614,-104.622489
193,193,854,"4050 Rae Street, Regina, SK, S4S 3A3",1,1.0,0,1,1,0,1,410,0,0,0,0,1,0,0,0,0,0,0,0,1,0,1,0,0,0,0,0,0,0,0,0,0,0,50.4152497,-104.6210282
194,194,1074,"3823 Retallack Street, Regina, SK, S4S 3B7",2,1.0,0,1,1,0,1,910,0,0,0,0,1,0,0,0,0,0,0,0,1,0,1,0,0,0,0,0,0,0,0,0,0,0,50.418614,-104.622489
195,195,1074,"4050 Rae Street, Regina, SK, S4S 3A3",2,1.0,0,1,1,0,1,910,0,0,0,0,1,0,0,0,0,0,0,0,1,0,1,0,0,0,0,0,0,0,0,0,0,0,50.4152497,-104.6210282
196,196,994,"3823 Retallack Street, Regina, SK, S4S 3B7",1,1.0,0,1,1,0,1,675,0,0,0,0,1,0,0,0,0,0,0,0,1,0,1,0,0,0,0,0,0,0,0,0,0,0,50.418614,-104.622489
197,197,925,"Central Estevan, Estevan, SK, S4A 3A2",1,1.0,0,1,1,1,1,775,1,1,0,0,0,0,1,0,0,0,0,0,1,1,1,0,1,1,1,1,1,0,0,0,1,0,49.142513,-102.990793
198,198,1000,"Central Estevan, Estevan, SK, S4A 1P7",2,1.0,0,1,1,2,1,1025,0,0,0,0,1,0,0,0,0,0,0,0,1,1,1,0,1,1,1,1,1,0,0,1,1,1,49.150486,-102.984256
199,199,1175,"Central Estevan, Estevan, SK, S4A 1P7",2,1.0,0,1,1,1,1,1000,1,1,0,0,0,0,1,0,0,0,0,0,1,1,1,0,1,1,0,1,1,0,0,0,1,0,49.150486,-102.984256
200,200,1268,"700 Gladmer Pk., Regina, SK, S4P 2W9",3,1.0,0,0,0,1,1,1056,0,0,1,0,0,0,0,0,0,1,0,1,1,1,1,0,1,0,0,0,0,0,0,0,1,1,50.437079,-104.605561
201,201,799,"1424 Victoria Ave, Regina, SK, S4P 0P3",1,1.0,0,1,1,0,1,520,0,0,0,0,1,0,0,0,0,0,0,0,1,0,1,0,0,0,0,0,0,0,0,0,0,0,50.447245,-104.600769
202,202,1285,"3928 Green Falls Drive, Regina, SK, S4V 3M1",2,1.0,0,1,1,0,1,840,0,1,0,0,1,0,0,0,0,0,0,0,0,1,1,0,1,0,0,0,1,1,1,0,1,0,50.431637,-104.550761
203,203,850,"2175  Rae Street, Regina, SK, S4T 2E8",1,1.0,0,1,1,0,1,380,0,1,0,0,1,0,0,0,0,0,0,0,1,0,1,1,0,0,0,0,0,0,0,0,0,0,50.445121,-104.621029
204,204,950,"2115  Montague St, Regina, SK, S4T 3K1",1,1.0,0,1,1,0,1,465,0,0,0,0,1,0,0,0,0,0,0,0,1,0,1,1,0,0,0,0,0,0,0,0,0,0,50.445075,-104.629572
205,205,1300,"5281 Aviator Crescent, S4W0G9, Regina, SK",2,1.5,0,1,1,1,0,1100,0,1,0,0,0,1,0,0,0,0,1,0,1,0,1,0,1,0,0,0,0,0,0,0,0,1,50.436949,-104.649662
206,206,1500,"138 Turner Crescent, Regina, SK S4N 4P6, Canada",3,1.0,0,0,0,2,1,1000,1,1,0,0,0,0,0,0,1,0,0,0,1,1,1,1,0,0,0,0,0,0,0,0,0,1,50.453767,-104.5451025
207,207,1000,"2151 Hamilton Street, S4P 2E5, Regina, SK",1,1.0,0,1,1,0,0,680,0,1,0,0,1,0,0,0,0,0,0,0,0,1,1,1,0,1,0,1,0,0,0,0,0,0,50.444921,-104.609399
208,208,795,"2151 Hamilton Street, S4P 2E5, Regina, SK",1,1.0,0,1,1,0,0,680,0,1,0,0,1,0,0,0,0,0,0,0,0,0,1,1,0,1,0,1,0,0,0,0,0,0,50.444921,-104.609399
209,209,700,"4701 4 Ave, Regina, SK S4T 0J5, Canada",2,1.0,0,1,1,1,0,700,0,0,0,0,1,0,0,0,0,0,0,0,0,0,1,1,0,1,0,0,0,0,0,0,0,0,50.46294,-104.648253
210,210,750,"1142 Garry St, Regina, SK S4T 5R4, Canada",1,1.0,0,0,0,2,1,750,0,0,1,1,0,0,0,0,1,0,0,0,1,0,0,0,1,0,0,0,0,0,0,0,0,1,50.461382,-104.665373
211,211,900,"4045 Rae St, Regina, SK S4S 6Y8, Canada",1,1.0,0,1,1,1,0,710,0,1,0,0,0,0,1,0,0,0,0,0,1,1,1,1,0,1,1,0,0,1,0,0,1,0,50.477049,-104.621099
212,212,850,"1431 Rae, S4p 3g1, Regina, SK",2,1.0,0,0,0,1,0,600,0,0,0,0,0,0,0,0,1,0,0,0,1,0,0,0,0,0,0,0,0,0,0,0,0,1,50.456133,-104.62065
213,213,925,", Regina S4T1Y5 SK, Canada",2,1.0,0,0,0,1,1,1050,0,0,0,0,0,0,0,1,0,0,0,0,0,1,1,0,1,0,0,0,0,0,0,0,0,1,50.461302,-104.619645
214,214,1500,"1829 Second A Street, S4A 0J8, Estevan, SK",4,2.0,0,1,0,3,0,1200,0,1,0,1,0,0,0,0,1,0,0,0,1,0,1,1,0,0,0,0,0,0,0,0,0,1,49.143651,-103.011038
215,215,975,"718 3rd St, Estevan, SK S4A 0P7, Canada",1,1.0,0,1,1,1,0,785,0,1,0,0,0,0,1,0,0,0,0,0,1,1,1,0,1,1,0,1,1,0,0,1,1,0,49.135681,-102.985735
216,216,1100,"Regina, SK, Canada, S4N 1T2",1,1.0,0,0,0,2,0,900,0,1,0,0,0,0,0,1,0,0,0,0,1,0,1,1,0,0,0,0,0,0,0,0,0,1,50.441016,-104.56384
217,217,854,"3954 Retallack Street, Regina, SK, S4S 3B9",1,1.0,0,1,1,0,1,480,0,0,0,0,1,0,0,0,0,0,0,0,1,0,1,0,0,0,0,0,0,0,0,0,0,0,50.417045,-104.622474
218,218,1414,"4130 Rae Street, Regina, SK, S4S 3A4",3,1.0,0,1,1,0,1,1161,0,0,0,0,1,0,0,0,0,0,0,0,1,0,1,0,0,0,0,0,0,0,0,0,0,0,50.413591,-104.621144
219,219,994,"4140 Rae Street, Regina, SK, S4S 3A4",1,1.0,0,1,1,0,1,675,0,0,0,0,1,0,0,0,0,0,0,0,1,0,1,0,0,0,0,0,0,0,0,0,0,0,50.413591,-104.621144
220,220,1074,"4049 Retallack Street, Regina, SK, S4S 3C2",2,1.0,0,1,1,0,1,910,0,0,0,0,1,0,0,0,0,0,0,0,1,0,1,0,0,0,0,0,0,0,0,0,0,0,50.415345,-104.622466
221,221,1154,"4064 Rae Street, Regina, SK, S4S 3A3",2,1.0,0,1,1,0,1,910,0,0,0,0,1,0,0,0,0,0,0,0,1,0,1,0,0,0,0,0,0,0,0,0,0,0,50.4152497,-104.6210282
222,222,799,"1538 Alexandra Street, Regina, SK, S4T 4N9",1,1.0,0,1,1,0,1,650,0,0,1,0,1,0,0,0,0,0,0,0,1,0,1,1,0,0,0,0,0,0,0,0,0,0,50.455447,-104.643791
223,223,1525,"4160 Rae Street, Regina, SK, S4S 3A4",3,1.0,0,1,1,0,1,1061,0,0,0,0,1,0,0,0,0,0,0,0,1,0,1,0,0,0,0,0,0,0,0,0,0,0,50.413591,-104.621144
224,224,1504,"2915 Parliament Ave, Regina, SK, S4S 2L3",3,1.0,0,1,1,0,1,1161,0,0,0,0,1,0,0,0,0,0,0,0,1,0,1,0,0,0,0,0,0,0,0,0,0,0,50.415392,-104.623167
225,225,734,"4120 Retallack Street, Regina, SK, S4S 3C3",1,1.0,0,1,1,0,1,320,0,0,0,0,1,0,0,0,0,0,0,0,1,0,1,0,0,0,0,0,0,0,0,0,0,0,50.4143456,-104.6224529
226,226,1154,"4160 Rae Street, Regina, SK, S4S 3A4",2,1.0,0,1,1,0,1,910,0,0,0,0,1,0,0,0,0,0,0,0,1,0,1,0,0,0,0,0,0,0,0,0,0,0,50.413591,-104.621144
227,227,849,"4100 Retallack Street, Regina, SK, S4S 3C3",1,1.0,0,1,1,0,1,650,0,0,0,0,1,0,0,0,0,0,0,0,1,0,1,0,0,0,0,0,0,0,0,0,0,0,50.4143456,-104.6224529
228,228,1154,"4040 Rae Street, Regina, SK, S4S 3A3",2,1.0,0,1,1,0,1,910,0,0,0,0,1,0,0,0,0,0,0,0,1,0,1,0,0,0,0,0,0,0,0,0,0,0,50.4152497,-104.6210282
229,229,1154,"4020 Robinson Street, Regina, SK, S4S 3C9",2,1.0,0,1,1,0,1,720,0,0,0,0,1,0,0,0,0,0,0,0,1,0,1,0,0,0,0,0,0,0,0,0,0,0,50.414744,-104.623898
230,230,854,"3854 Rae Street, Regina, SK, S4S 3A1",1,1.0,0,1,1,0,1,480,0,0,0,0,1,0,0,0,0,0,0,0,1,0,1,0,0,0,0,0,0,0,0,0,0,0,50.41858,-104.621018
231,231,999,"4030 Rae Street, Regina, SK, S4S 3A3",2,1.0,0,1,1,0,1,910,0,0,0,0,1,0,0,0,0,0,0,0,1,0,1,0,0,0,0,0,0,0,0,0,0,0,50.4152497,-104.6210282
232,232,864,"1538 Alexandra Street, Regina, SK, S4T 4N9",1,1.0,0,1,1,0,1,480,0,0,1,0,1,0,0,0,0,0,0,0,1,0,1,1,0,0,0,0,0,0,0,0,0,0,50.455447,-104.643791
233,233,1104,"1520 Alexandra Street, Regina, SK, S4T 4N9",2,1.0,0,1,1,0,1,880,0,0,0,0,1,0,0,0,0,0,0,0,1,0,1,0,0,0,0,0,0,0,0,0,0,0,50.455447,-104.643791
234,234,1154,"2821 Parliament Ave, Regina, SK, S4S 2L1",2,1.0,0,1,1,0,1,910,0,0,0,0,1,0,0,0,0,0,0,0,1,0,1,0,0,0,0,0,0,0,0,0,0,0,50.415392,-104.621739
235,235,734,"2924 Parliament Ave, Regina, SK, S4S 2L4",1,1.0,0,1,1,0,1,320,0,0,0,0,1,0,0,0,0,0,0,0,1,0,1,0,0,0,0,0,0,0,0,0,0,0,50.415614,-104.622717
236,236,994,"4150 Rae Street, Regina, SK, S4S 3A4",1,1.0,0,1,1,0,1,675,0,0,0,0,1,0,0,0,0,0,0,0,1,0,1,0,0,0,0,0,0,0,0,0,0,0,50.413591,-104.621144
237,237,1030,"2240 Robinson Street, Regina, SK, S4T 2P9",2,1.0,0,1,1,0,1,870,0,1,0,0,1,0,0,0,0,0,0,0,1,0,1,1,0,0,0,0,0,0,0,0,0,0,50.4436708,-104.6239575
238,238,850,"2175  Rae Street, Regina, SK, S4T 2E8",1,1.0,0,1,1,0,1,380,0,1,0,0,1,0,0,0,0,0,0,0,1,0,1,1,0,0,0,0,0,0,0,0,0,0,50.445121,-104.621029
239,239,1285,"3928 Green Falls Drive, Regina, SK, S4V 3M1",2,1.0,0,1,1,0,1,840,0,1,0,0,1,0,0,0,0,0,0,0,0,1,1,0,1,0,0,0,1,1,1,0,1,0,50.431637,-104.550761
240,240,1319,"75 Cavendish St., Regina, SK, S4N 5B9",3,1.5,0,0,0,1,1,1047,0,0,1,0,0,0,0,0,0,1,0,1,1,0,1,0,1,0,0,0,0,0,0,0,1,1,50.455052,-104.530198
241,241,725,"3955 Robinson Street, Regina, SK, S4S 3C7",1,1.0,0,1,1,0,1,480,0,0,0,0,1,0,0,0,0,0,0,0,1,0,1,0,0,0,0,0,0,0,0,0,0,0,50.416219,-104.623885
242,242,1174,"4140 Rae Street, Regina, SK, S4S 3A4",2,1.0,0,1,1,0,1,910,0,0,0,0,1,0,0,0,0,0,0,0,1,0,1,0,0,0,0,0,0,0,0,0,0,0,50.413591,-104.621144
243,243,1154,"4130 Rae Street, Regina, SK, S4S 3A4",2,1.0,0,1,1,0,1,910,0,0,0,0,1,0,0,0,0,0,0,0,1,0,1,0,0,0,0,0,0,0,0,0,0,0,50.413591,-104.621144
244,244,1074,"4029 Retallack Street, Regina, SK, S4S 3C2",2,1.0,0,1,1,0,1,910,0,0,0,0,1,0,0,0,0,0,0,0,1,0,1,0,0,0,0,0,0,0,0,0,0,0,50.415345,-104.622466
245,245,849,"3955 Retallack Street, Regina, SK, S4S 3C1",1,1.0,0,1,1,0,1,675,0,0,0,0,1,0,0,0,0,0,0,0,1,0,1,0,0,0,0,0,0,0,0,0,0,0,50.416322,-104.62233
246,246,1074,"3918 Rae Street, Regina, SK, S4S 3A2",2,1.0,0,1,1,0,1,910,0,0,0,0,1,0,0,0,0,0,0,0,1,0,1,0,0,0,0,0,0,0,0,0,0,0,50.417045,-104.621031
247,247,1684,"68 Rae Street, Regina, SK, S4S 3A4",2,1.0,0,0,0,0,1,1848,0,0,0,0,0,0,0,0,1,0,0,0,1,0,1,0,0,0,0,0,0,0,0,0,0,0,50.413591,-104.621144
248,248,1014,"4049 Retallack Street, Regina, SK, S4S 3C2",1,1.0,0,1,1,0,1,675,0,0,0,0,1,0,0,0,0,0,0,0,1,0,1,0,0,0,0,0,0,0,0,0,0,0,50.415345,-104.622466
249,249,994,"4120 Retallack Street, Regina, SK, S4S 3C3",1,1.0,0,1,1,0,1,675,0,0,0,0,1,0,0,0,0,0,0,0,1,0,1,0,0,0,0,0,0,0,0,0,0,0,50.4143456,-104.6224529
250,250,1074,"2935 Parliament Avenue, Regina, SK, S4S 2L3",2,1.0,0,1,1,0,1,910,0,0,0,0,1,0,0,0,0,0,0,0,1,0,1,0,0,0,0,0,0,0,0,0,0,0,50.415392,-104.623167
251,251,1154,"2805 Parliament Ave, Regina, SK, S4S 2L1",2,1.0,0,1,1,0,1,910,0,0,0,0,1,0,0,0,0,0,0,0,1,0,1,0,0,0,0,0,0,0,0,0,0,0,50.415392,-104.621739
252,252,854,"4150 Rae Street, Regina, SK, S4S 3A4",1,1.0,0,1,1,0,1,480,0,0,0,0,1,0,0,0,0,0,0,0,1,0,1,0,0,0,0,0,0,0,0,0,0,0,50.413591,-104.621144
253,253,1154,"3930 Rae Street, Regina, SK, S4S 3A2",2,1.0,0,1,1,0,1,910,0,0,0,0,1,0,0,0,0,0,0,0,1,0,1,0,0,0,0,0,0,0,0,0,0,0,50.417045,-104.621031
254,254,999,"4150 Rae Street, Regina, SK, S4S 3A4",2,1.0,0,1,1,0,1,910,0,0,0,0,1,0,0,0,0,0,0,0,1,0,1,0,0,0,0,0,0,0,0,0,0,0,50.413591,-104.621144
255,255,1134,"2121 Smith Street, Regina, SK, S4P 2P3",2,1.0,0,1,1,0,1,910,0,0,0,0,1,0,0,0,0,0,0,0,1,0,1,1,0,0,0,0,0,0,0,0,0,0,50.444657,-104.615192
256,256,794,"4020 Robinson Street, Regina, SK, S4S 3C9",1,1.0,0,1,1,0,1,675,0,0,0,0,1,0,0,0,0,0,0,0,1,0,1,0,0,0,0,0,0,0,0,0,0,0,50.414744,-104.623898
257,257,849,"3954 Retallack Street, Regina, SK, S4S 3B9",1,1.0,0,1,1,0,1,675,0,0,0,0,1,0,0,0,0,0,0,0,1,0,1,0,0,0,0,0,0,0,0,0,0,0,50.417045,-104.622474
258,258,725,"4020 Robinson Street, Regina, SK, S4S 3C9",1,1.0,0,1,1,0,1,320,0,0,0,0,1,0,0,0,0,0,0,0,1,0,1,0,0,0,0,0,0,0,0,0,0,0,50.414744,-104.623898
259,259,1074,"4039 Retallack Street, Regina, SK, S4S 3C2",2,1.0,0,1,1,0,1,910,0,0,0,0,1,0,0,0,0,0,0,0,1,0,1,0,0,0,0,0,0,0,0,0,0,0,50.415345,-104.622466
260,260,1154,"4076 Rae Street, Regina, SK, S4S 3A3",2,1.0,0,1,1,0,1,910,0,0,0,0,1,0,0,0,0,0,0,0,1,0,1,0,0,0,0,0,0,0,0,0,0,0,50.4152497,-104.6210282
261,261,754,"2935 Parliament Avenue, Regina, SK, S4S 2L3",1,1.0,0,1,1,0,1,320,0,0,0,0,1,0,0,0,0,0,0,0,1,0,1,0,0,0,0,0,0,0,0,0,0,0,50.415392,-104.623167
262,262,734,"3025 Parliament Avenue, Regina, SK, S4S 2L6",1,1.0,0,1,1,0,1,320,0,0,0,0,1,0,0,0,0,0,0,0,1,0,1,0,0,0,0,0,0,0,0,0,0,0,50.415394,-104.62461
263,263,864,"1544 Alexandra Street, Regina, SK, S4T 4N9",1,1.0,0,1,1,0,1,480,0,0,0,0,1,0,0,0,0,0,0,0,1,0,1,0,0,0,0,0,0,0,0,0,0,0,50.455447,-104.643791
264,264,994,"2805 Parliament Ave, Regina, SK, S4S 2L1",1,1.0,0,1,1,0,1,675,0,0,0,0,1,0,0,0,0,0,0,0,1,0,1,0,0,0,0,0,0,0,0,0,0,0,50.415392,-104.621739
265,265,734,"4019 Retallack Street, Regina, SK, S4S 3C2",1,1.0,0,1,1,0,1,320,0,0,0,0,1,0,0,0,0,0,0,0,1,0,1,0,0,0,0,0,0,0,0,0,0,0,50.415345,-104.622466
266,266,854,"4049 Retallack Street, Regina, SK, S4S 3C2",1,1.0,0,1,1,0,1,480,0,0,0,0,1,0,0,0,0,0,0,0,1,0,1,0,0,0,0,0,0,0,0,0,0,0,50.415345,-104.622466
267,267,1154,"3025 Parliament Avenue, Regina, SK, S4S 2L6",2,1.0,0,1,1,0,1,720,0,0,0,0,1,0,0,0,0,0,0,0,1,0,1,0,0,0,0,0,0,0,0,0,0,0,50.415394,-104.62461
268,268,725,"3955 Retallack Street, Regina, SK, S4S 3C1",1,1.0,0,1,1,0,1,480,0,0,0,0,1,0,0,0,0,0,0,0,1,0,1,0,0,0,0,0,0,0,0,0,0,0,50.416322,-104.62233
269,269,854,"3954 Rae Street, Regina, SK, S4S 3A2",1,1.0,0,1,1,0,1,480,0,0,0,0,1,0,0,0,0,0,0,0,1,0,1,0,0,0,0,0,0,0,0,0,0,0,50.417045,-104.621031
270,270,974,"1544 Alexandra Street, Regina, SK, S4T 4N9",1,1.0,0,1,1,0,1,650,0,0,0,0,1,0,0,0,0,0,0,0,1,0,1,0,0,0,0,0,0,0,0,0,0,0,50.455447,-104.643791
271,271,1134,"2155 Rose Street, Regina, SK, S4P 2A5",2,1.0,0,1,1,0,1,910,0,0,0,0,1,0,0,0,0,0,0,0,1,0,1,0,0,0,0,0,0,0,0,0,0,0,50.444226,-104.6079823
272,272,849,"4039 Retallack Street, Regina, SK, S4S 3C2",1,1.0,0,1,1,0,1,675,0,0,0,0,1,0,0,0,0,0,0,0,1,0,1,0,0,0,0,0,0,0,0,0,0,0,50.415345,-104.622466
273,273,949,"4114 Rae Street, Regina, SK, S4S 3A4",2,1.0,0,1,1,0,1,910,0,0,0,0,1,0,0,0,0,0,0,0,1,0,1,0,0,0,0,0,0,0,0,0,0,0,50.413591,-104.621144
274,274,814,"3864 Rae Street, Regina, SK, S4S 3A1",1,1.0,0,1,1,0,1,675,0,0,0,0,1,0,0,0,0,0,0,0,1,0,1,0,0,0,0,0,0,0,0,0,0,0,50.41858,-104.621018
275,275,935,"505 Rose St, Regina, SK S4R 1Z4, Canada",2,1.0,0,1,1,1,0,800,0,1,0,0,1,0,0,0,0,0,0,0,0,0,1,1,0,0,0,0,0,0,0,0,1,0,50.470701,-104.607933
276,276,1300,"331  Broad Street North, Regina, SK, S4R 2X8",2,2.0,0,1,1,0,1,832,0,1,0,0,1,0,0,0,0,0,0,0,1,0,1,1,0,0,0,0,0,0,0,0,1,0,50.4809322,-104.6064483
277,277,938,"22-41 Munroe Pl., Regina, SK, S4S 6A7",2,1.0,0,1,1,0,1,860,0,0,1,0,1,0,0,0,0,0,0,1,1,0,1,1,0,1,0,0,0,0,0,1,1,0,50.414254,-104.599335
278,278,949,"4114 Rae Street, Regina, SK, S4S 3A4",2,1.0,0,1,1,0,1,910,0,0,0,0,1,0,0,0,0,0,0,0,1,0,1,0,0,0,0,0,0,0,0,0,0,0,50.413591,-104.621144
279,279,854,"4029 Retallack Street, Regina, SK, S4S 3C2",1,1.0,0,1,1,0,1,480,0,0,0,0,1,0,0,0,0,0,0,0,1,0,1,0,0,0,0,0,0,0,0,0,0,0,50.415345,-104.622466
280,280,999,"4122 Rae Street, Regina, SK, S4S 3A4",2,1.0,0,1,1,0,1,910,0,0,0,0,1,0,0,0,0,0,0,0,1,0,1,0,0,0,0,0,0,0,0,0,0,0,50.413591,-104.621144
281,281,699,"2835 Parliament Ave, Regina, SK, S4S 2L1",1,1.0,0,1,1,0,1,320,0,0,0,0,1,0,0,0,0,0,0,0,1,0,1,0,0,0,0,0,0,0,0,0,0,0,50.415392,-104.621739
282,282,999,"2915 Parliament Ave, Regina, SK, S4S 2L3",2,1.0,0,1,1,0,1,720,0,0,0,0,1,0,0,0,0,0,0,0,1,0,1,0,0,0,0,0,0,0,0,0,0,0,50.415392,-104.623167
283,283,994,"4114 Rae Street, Regina, SK, S4S 3A4",1,1.0,0,1,1,0,1,675,0,0,0,0,1,0,0,0,0,0,0,0,1,0,1,0,0,0,0,0,0,0,0,0,0,0,50.413591,-104.621144
284,284,1154,"3026 Parliament Avenue, Regina, SK, S4S 2L5",2,1.0,0,1,1,0,1,910,0,0,0,0,1,0,0,0,0,0,0,0,1,0,1,0,0,0,0,0,0,0,0,0,0,0,50.415477,-104.624051
285,285,854,"3940 Retallack Street, Regina, SK, S4S 3B9",1,1.0,0,1,1,0,1,480,0,0,0,0,1,0,0,0,0,0,0,0,1,0,1,0,0,0,0,0,0,0,0,0,0,0,50.417045,-104.622474
286,286,799,"2935 Parliament Avenue, Regina, SK, S4S 2L3",1,1.0,0,1,1,0,1,675,0,0,0,0,1,0,0,0,0,0,0,0,1,0,1,0,0,0,0,0,0,0,0,0,0,0,50.415392,-104.623167
287,287,754,"3918 Rae Street, Regina, SK, S4S 3A2",1,1.0,0,1,1,0,1,480,0,0,0,0,1,0,0,0,0,0,0,0,1,0,1,0,0,0,0,0,0,0,0,0,0,0,50.417045,-104.621031
288,288,754,"3929 Retallack Street, Regina, SK, S4S 3C1",1,1.0,0,1,1,0,1,480,0,0,0,0,1,0,0,0,0,0,0,0,1,0,1,0,0,0,0,0,0,0,0,0,0,0,50.416322,-104.62233
289,289,814,"2915 Parliament Ave, Regina, SK, S4S 2L3",1,1.0,0,1,1,0,1,675,0,0,0,0,1,0,0,0,0,0,0,0,1,0,1,0,0,0,0,0,0,0,0,0,0,0,50.415392,-104.623167
290,290,994,"4122 Rae Street, Regina, SK, S4S 3A4",1,1.0,0,1,1,0,1,675,0,0,0,0,1,0,0,0,0,0,0,0,1,0,1,0,0,0,0,0,0,0,0,0,0,0,50.413591,-104.621144
291,291,799,"3025 Parliament Avenue, Regina, SK, S4S 2L6",1,1.0,0,1,1,0,1,675,0,0,0,0,1,0,0,0,0,0,0,0,1,0,1,0,0,0,0,0,0,0,0,0,0,0,50.415394,-104.62461
292,292,799,"3918 Rae Street, Regina, SK, S4S 3A2",1,1.0,0,1,1,0,1,675,0,0,0,0,1,0,0,0,0,0,0,0,1,0,1,0,0,0,0,0,0,0,0,0,0,0,50.417045,-104.621031
293,293,799,"3026 Parliament Avenue, Regina, SK, S4S 2L5",1,1.0,0,1,1,0,1,675,0,0,0,0,1,0,0,0,0,0,0,0,1,0,1,0,0,0,0,0,0,0,0,0,0,0,50.415477,-104.624051
294,294,794,"3941 Retallack Street, Regina, SK, S4S 3C1",1,1.0,0,1,1,0,1,675,0,0,0,0,1,0,0,0,0,0,0,0,1,0,1,0,0,0,0,0,0,0,0,0,0,0,50.416322,-104.62233
295,295,854,"4030 Rae Street, Regina, SK, S4S 3A3",1,1.0,0,1,1,0,1,480,0,0,0,0,1,0,0,0,0,0,0,0,1,0,1,0,0,0,0,0,0,0,0,0,0,0,50.4152497,-104.6210282
296,296,814,"4030 Rae Street, Regina, SK, S4S 3A3",1,1.0,0,1,1,0,1,675,0,0,0,0,1,0,0,0,0,0,0,0,1,0,1,0,0,0,0,0,0,0,0,0,0,0,50.4152497,-104.6210282
297,297,994,"4029 Retallack Street, Regina, SK, S4S 3C2",1,1.0,0,1,1,0,1,675,0,0,0,0,1,0,0,0,0,0,0,0,1,0,1,0,0,0,0,0,0,0,0,0,0,0,50.415345,-104.622466
298,298,849,"2835 Parliament Ave, Regina, SK, S4S 2L1",1,1.0,0,1,1,0,1,675,0,0,0,0,1,0,0,0,0,0,0,0,1,0,1,0,0,0,0,0,0,0,0,0,0,0,50.415392,-104.621739
299,299,699,"2155 Rose Street, Regina, SK, S4P 2A5",1,1.0,0,1,1,0,1,320,0,0,0,0,1,0,0,0,0,0,0,0,1,0,1,0,0,0,0,0,0,0,0,0,0,0,50.444226,-104.6079823
300,300,799,"3954 Rae Street, Regina, SK, S4S 3A2",1,1.0,0,1,1,0,1,675,0,0,0,0,1,0,0,0,0,0,0,0,1,0,1,0,0,0,0,0,0,0,0,0,0,0,50.417045,-104.621031
301,301,849,"4110 Rae Street, Regina, SK, S4S 3A4",1,1.0,0,1,1,0,1,675,0,0,0,0,1,0,0,0,0,0,0,0,1,0,1,0,0,0,0,0,0,0,0,0,0,0,50.413591,-104.621144
302,302,854,"4110 Rae Street, Regina, SK, S4S 3A4",1,1.0,0,1,1,0,1,480,0,0,0,0,1,0,0,0,0,0,0,0,1,0,1,0,0,0,0,0,0,0,0,0,0,0,50.413591,-104.621144
303,303,854,"3900 Rae Street, Regina, SK, S4S 3A2",1,1.0,0,1,1,0,1,480,0,0,0,0,1,0,0,0,0,0,0,0,1,0,1,0,0,0,0,0,0,0,0,0,0,0,50.417045,-104.621031
304,304,854,"4076 Rae Street, Regina, SK, S4S 3A3",1,1.0,0,1,1,0,1,480,0,0,0,0,1,0,0,0,0,0,0,0,1,0,1,0,0,0,0,0,0,0,0,0,0,0,50.4152497,-104.6210282
305,305,974,"1520 Alexandra Street, Regina, SK, S4T 4N9",1,1.0,0,1,1,0,1,650,0,0,0,0,1,0,0,0,0,0,0,0,1,0,1,0,0,0,0,0,0,0,0,0,0,0,50.455447,-104.643791
306,306,889,"3900 Rae Street, Regina, SK, S4S 3A2",1,1.0,0,1,1,0,1,675,0,0,0,0,1,0,0,0,0,0,0,0,1,0,1,0,0,0,0,0,0,0,0,0,0,0,50.417045,-104.621031
307,307,814,"2924 Parliament Ave, Regina, SK, S4S 2L4",1,1.0,0,1,1,0,1,675,0,0,0,0,1,0,0,0,0,0,0,0,1,0,1,0,0,0,0,0,0,0,0,0,0,0,50.415614,-104.622717
308,308,799,"3929 Retallack Street, Regina, SK, S4S 3C1",1,1.0,0,1,1,0,1,675,0,0,0,0,1,0,0,0,0,0,0,0,1,0,1,0,0,0,0,0,0,0,0,0,0,0,50.416322,-104.62233
309,309,814,"4076 Rae Street, Regina, SK, S4S 3A3",1,1.0,0,1,1,0,1,675,0,0,0,0,1,0,0,0,0,0,0,0,1,0,1,0,0,0,0,0,0,0,0,0,0,0,50.4152497,-104.6210282
310,310,849,"4019 Retallack Street, Regina, SK, S4S 3C2",1,1.0,0,1,1,0,1,675,0,0,0,0,1,0,0,0,0,0,0,0,1,0,1,0,0,0,0,0,0,0,0,0,0,0,50.415345,-104.622466
311,311,854,"3941 Retallack Street, Regina, SK, S4S 3C1",1,1.0,0,1,1,0,1,480,0,0,0,0,1,0,0,0,0,0,0,0,1,0,1,0,0,0,0,0,0,0,0,0,0,0,50.416322,-104.62233
312,312,725,"2121 Smith Street, Regina, SK, S4P 2P3",1,1.0,0,1,1,0,1,320,0,0,0,0,1,0,0,0,0,0,0,0,1,0,1,1,0,0,0,0,0,0,0,0,0,0,50.444657,-104.615192
313,313,699,"1520 Alexandra Street, Regina, SK, S4T 4N9",1,1.0,0,1,1,0,1,320,0,0,0,0,1,0,0,0,0,0,0,0,1,0,1,0,0,0,0,0,0,0,0,0,0,0,50.455447,-104.643791
314,314,799,"3854 Rae Street, Regina, SK, S4S 3A1",1,1.0,0,1,1,0,1,675,0,0,0,0,1,0,0,0,0,0,0,0,1,0,1,0,0,0,0,0,0,0,0,0,0,0,50.41858,-104.621018
315,315,849,"3525 Avonhurst Dr, Regina, SK, S4R 3K2",2,1.0,0,1,1,0,1,763,0,0,0,0,1,0,0,0,0,0,0,0,1,0,1,1,0,0,0,0,0,0,0,0,0,1,50.474007,-104.632346
316,316,1319,"75 Cavendish St., Regina, SK, S4N 5B9",3,1.5,0,0,0,1,1,1047,0,0,1,0,0,0,0,0,0,1,0,1,1,0,1,0,1,0,0,0,0,0,0,0,1,1,50.455052,-104.530198
317,317,799,"1424 Victoria Ave, Regina, SK, S4P 0P3",1,1.0,0,1,1,0,1,520,0,0,0,0,1,0,0,0,0,0,0,0,1,0,1,0,0,0,0,0,0,0,0,0,0,0,50.447245,-104.600769
318,318,935,"505 Rose St, Regina, SK S4R 1Z4, Canada",2,1.0,0,1,1,1,0,800,0,1,0,0,1,0,0,0,0,0,0,0,0,0,1,1,0,0,0,0,0,0,0,0,1,0,50.470701,-104.607933
319,319,814,"3864 Rae Street, Regina, SK, S4S 3A1",1,1.0,0,1,1,0,1,675,0,0,0,0,1,0,0,0,0,0,0,0,1,0,1,0,0,0,0,0,0,0,0,0,0,0,50.41858,-104.621018
320,320,854,"801 Grey Street, Regina, SK, S4T 5G8",1,1.0,0,1,1,0,1,480,0,0,0,0,1,0,0,0,0,0,0,0,1,0,1,0,0,0,0,0,0,0,0,0,0,0,50.464843,-104.655319
321,321,814,"3864 Rae Street, Regina, SK, S4S 3A1",1,1.0,0,1,1,0,1,675,0,0,0,0,1,0,0,0,0,0,0,0,1,0,1,0,0,0,0,0,0,0,0,0,0,0,50.41858,-104.621018
322,322,675,"2821 Parliament Ave, Regina, SK, S4S 2L1",1,1.0,0,1,1,0,1,320,0,0,0,0,1,0,0,0,0,0,0,0,1,0,1,0,0,0,0,0,0,0,0,0,0,0,50.415392,-104.621739
323,323,994,"2821 Parliament Ave, Regina, SK, S4S 2L1",1,1.0,0,1,1,0,1,675,0,0,0,0,1,0,0,0,0,0,0,0,1,0,1,0,0,0,0,0,0,0,0,0,0,0,50.415392,-104.621739
324,324,879,"2121 Smith Street, Regina, SK, S4P 2P3",1,1.0,0,1,1,0,1,675,0,0,0,0,1,0,0,0,0,0,0,0,1,0,1,1,0,0,0,0,0,0,0,0,0,0,50.444657,-104.615192
325,325,854,"3864 Rae Street, Regina, SK, S4S 3A1",1,1.0,0,1,1,0,1,480,0,0,0,0,1,0,0,0,0,0,0,0,1,0,1,0,0,0,0,0,0,0,0,0,0,0,50.41858,-104.621018
326,326,1189,"22-41 Munroe Pl., Regina, SK, S4S 6A7",2,1.0,0,1,1,1,1,860,0,1,1,0,1,0,0,0,0,0,0,1,1,0,1,1,0,1,0,0,0,0,0,1,1,0,50.414254,-104.599335
327,327,1300,"S4P3y8, Canada",1,1.0,0,1,1,1,0,632,1,0,0,0,0,0,1,0,0,0,0,0,1,1,1,0,1,0,0,0,0,0,0,0,1,0,50.4424462,-104.6166159
328,328,1100,"Blake Cres, Regina, SK S4X, Canada",2,1.0,0,0,0,1,0,875,0,1,0,0,0,0,0,0,0,1,0,0,1,1,1,0,1,0,0,0,0,0,0,0,1,0,50.508181,-104.660468
329,329,1200,"10 Ave W, Melville, SK S0A 2P0, Canada",3,1.0,1,1,1,1,0,950,1,0,0,0,0,0,0,0,1,0,0,0,1,1,1,1,0,0,0,0,0,0,0,0,0,1,51.138243,-102.872075
330,330,940,"331  Broad Street North, Regina, SK, S4R 2X8",1,1.0,0,1,1,0,1,659,0,1,0,0,1,0,0,0,0,0,0,0,1,0,1,1,0,0,0,0,0,0,0,0,1,0,50.4809322,-104.6064483
331,331,1250,"Froom Crescent, Regina, SK S4N 1B7, Canada",2,1.0,0,1,1,2,0,1050,0,1,0,0,0,0,0,0,1,0,1,1,1,0,1,1,0,0,0,0,0,0,0,0,1,1,50.441957,-104.564223
332,332,915,"2178 Osler St, Regina, SK S4P 1W6, Canada",2,1.0,0,1,1,1,0,900,0,1,0,0,1,0,0,0,0,0,0,0,0,0,1,1,0,1,0,0,0,0,0,1,1,0,50.445445,-104.60491
333,333,1085,"2131 Angus Street, Regina, SK, S4T 2A1",2,1.0,0,1,1,0,1,875,0,1,0,0,1,0,0,0,0,0,0,0,1,0,1,1,0,0,0,0,0,0,0,0,1,0,50.445149,-104.619638
334,334,1690,", S4N 1L6, Regina, SK",3,1.5,0,0,0,3,0,1100,0,1,0,0,0,0,0,0,1,0,0,0,1,1,1,1,0,0,0,0,0,0,0,0,0,1,50.451886,-104.551279
335,335,800,"S4S4G2, Canada",1,1.0,0,1,1,1,0,700,0,0,0,0,1,0,0,0,0,0,0,0,0,0,1,1,0,0,0,0,0,0,0,0,0,0,50.4179646,-104.6148542
336,336,850,"S4T 2G 3, Canada",1,1.0,0,1,1,1,0,700,0,1,0,0,1,0,0,0,0,0,0,0,0,0,1,1,0,0,0,0,0,0,0,0,0,0,50.4416,-104.6208
337,337,600,"S4X0C2, Canada",1,1.0,1,1,0,1,0,700,1,0,0,0,0,1,0,0,0,0,1,1,0,1,1,1,1,0,0,0,0,0,0,0,0,1,50.4980928,-104.6442253
338,338,1445,"5200 Parliament Ave, Regina, SK S4W 0R5, Canada",2,2.0,0,1,1,2,1,857,0,1,0,1,1,0,0,0,0,0,0,0,0,1,1,0,1,0,0,0,0,0,0,0,1,0,50.44065,-104.649629
339,339,1750,"14 Milford Crescent, Regina, SK S4N 1K7, Canada",3,2.0,0,0,0,3,1,1300,0,1,0,1,0,0,0,0,1,0,0,0,1,1,1,1,1,0,0,0,0,0,0,0,1,1,50.452663,-104.5512115
340,340,1000,"2140 9th Ave N, Regina, SK S4R 7Z8, Canada",2,1.0,0,1,1,1,0,840,0,1,1,0,1,0,0,0,0,0,0,0,0,1,1,1,0,1,1,0,0,0,0,0,1,0,50.484362,-104.612213
341,341,900,"2140 9th Ave N, Regina, SK S4R 7Z8, Canada",1,1.0,0,1,1,1,0,730,0,1,1,0,1,0,0,0,0,0,0,0,0,0,1,1,0,1,1,0,0,0,0,0,1,0,50.484362,-104.612213
342,342,800,"240 13 St, Weyburn, SK S4H 1L2, Canada",2,1.0,1,1,1,2,0,780,0,1,0,0,0,1,0,0,0,0,0,0,0,0,1,1,1,0,0,0,0,0,0,0,0,1,49.662667,-103.839965
343,343,900,"2250 Rose St., Regina, SK, S4P 2A7",2,1.0,0,1,1,0,0,900,0,0,0,0,1,0,0,0,0,0,0,0,1,0,1,1,0,0,0,0,0,0,0,0,0,0,50.443213,-104.608118
344,344,1750,"S4H 0A3, Canada",3,2.0,1,1,1,3,1,1750,0,0,0,1,0,0,0,0,1,0,1,1,1,0,0,1,1,0,0,0,0,0,0,0,1,1,49.658893,-103.853192
345,345,1285,"2275 McIntyre St, Regina, SK S4P 2S1, Canada",2,2.0,1,1,1,2,0,1400,0,1,0,0,0,0,1,0,0,0,0,0,1,1,1,0,1,0,0,0,1,0,0,0,1,0,50.443242,-104.616468
346,346,450,"141 6 St, Weyburn, SK S4H 1B1, Canada",1,1.0,1,1,1,1,1,200,1,1,0,0,1,0,0,0,0,0,1,0,0,0,1,1,0,0,0,0,0,0,0,0,0,0,49.661508,-103.849828
347,347,700,"1765 Hamilton St, Regina, SK S4P 2B4, Canada",1,1.0,0,1,1,0,0,350,0,0,0,0,1,0,0,0,0,0,0,0,1,0,1,1,0,0,0,0,0,0,0,0,0,0,50.451348,-104.609393
348,348,1285,"2275 McIntyre St, Regina, SK S4P 2S1, Canada",2,2.0,1,1,1,2,0,1400,0,1,1,0,0,0,1,0,0,0,0,0,1,1,1,0,1,0,0,0,1,0,0,0,1,0,50.443242,-104.616468
349,349,450,"Harvey St, Regina, SK S4N 2M7, Canada",1,1.0,0,1,1,1,0,90,0,0,0,0,0,0,0,0,1,0,0,0,1,0,1,0,0,0,0,0,0,0,0,0,0,0,50.446931,-104.578268
350,350,1950,"5321 Squires Rd, Regina, SK S4W 0L8, Canada",3,2.5,0,0,0,2,1,1475,0,0,0,0,0,0,0,0,1,0,0,0,1,1,1,0,1,0,0,0,0,0,0,0,0,1,50.409867,-104.657634
351,351,1900,"Green Jade Ln, Regina, SK S4V 3K7",3,2.0,0,0,0,1,1,1044,1,1,0,0,0,0,0,0,0,1,0,0,1,1,1,0,1,0,0,0,0,0,0,0,0,1,50.431637,-104.550761
352,352,715,"25 Shaw St, Regina, SK S4R 3M5, Canada",1,1.0,0,1,1,1,0,800,0,0,1,0,1,0,0,0,0,0,0,0,0,0,1,1,0,0,0,0,0,0,0,1,0,0,50.480423,-104.621977
353,353,1350,"2727 Victoria Ave, Regina, SK S4T 1K4, Canada",1,1.5,0,1,1,1,0,1193,0,1,0,1,0,0,1,0,0,0,0,0,1,0,1,0,1,0,0,0,1,0,0,0,1,0,50.447111,-104.619771
354,354,750,"2104  14th Ave, Regina, SK, S4P 0X6",1,1.0,0,1,1,0,1,343,0,0,0,0,1,0,0,0,0,0,0,0,1,0,1,1,0,0,0,0,0,0,0,0,0,0,50.4440233,-104.6158508
355,355,849,"3525 Avonhurst Dr, Regina, SK, S4R 3K2",2,1.0,0,1,1,0,1,763,0,0,0,0,1,0,0,0,0,0,0,0,1,0,1,1,0,0,0,0,0,0,0,0,0,1,50.474007,-104.632346
356,356,940,"331  Broad Street North, Regina, SK, S4R 2X8",1,1.0,0,1,1,0,1,659,0,1,0,0,1,0,0,0,0,0,0,0,1,0,1,1,0,0,0,0,0,0,0,0,1,0,50.4809322,-104.6064483
357,357,1319,"75 Cavendish St., Regina, SK, S4N 5B9",3,1.5,0,0,0,1,1,1047,0,0,1,0,0,0,0,0,0,1,0,1,1,0,1,0,1,0,0,0,0,0,0,0,1,1,50.455052,-104.530198
358,358,1200,"2190 Broder St, Regina, SK S4N 3S4, Canada",2,1.0,0,0,0,2,0,900,0,1,0,0,0,1,0,0,0,0,0,0,1,1,1,0,1,0,0,0,0,0,0,0,0,1,50.445424,-104.590789
359,359,1600,"3364 Grant Rd, Regina, SK S4S 5H5",3,2.0,1,1,1,1,1,1200,1,0,1,0,0,0,0,0,0,1,1,1,1,0,1,1,1,0,0,0,0,0,0,0,0,0,50.408526,-104.596985
360,360,1319,"75 Cavendish St., Regina, SK, S4N 5B9",3,1.5,0,0,0,1,1,1047,0,0,1,0,0,0,0,0,0,1,0,1,1,0,1,0,1,0,0,0,0,0,0,0,1,1,50.455052,-104.530198
361,361,1200,"31 Rodenbush Dr, Regina, SK S4R 7W7, Canada",1,1.0,1,1,1,1,0,730,1,1,0,0,0,0,1,0,0,0,0,1,0,1,1,1,0,0,0,0,0,0,0,0,1,0,50.494422,-104.597984
362,362,1900,"Regina Airport, 5201 Regina Ave #1, Regina, SK S4W 1B3, Canada",3,1.5,1,1,1,2,1,900,1,1,0,0,0,0,0,0,1,0,1,1,0,1,1,0,1,0,0,0,0,0,0,0,0,1,50.466657,-104.655445
363,363,1800,"1901 Victoria Ave, Regina, SK S4P 3R4, Canada",2,2.0,1,1,1,1,1,1350,1,1,0,0,0,0,1,0,0,0,1,1,0,1,1,0,1,1,1,0,1,0,0,1,1,0,50.447085,-104.60869
364,364,795,"2167 Angus St, Regina, SK S4T 2A1, Canada",1,1.0,0,0,1,1,0,650,0,1,0,0,0,0,1,0,0,0,0,0,1,0,1,0,1,0,0,0,0,0,0,0,1,0,50.445149,-104.619638
365,365,995,"2001 Cornwall St, Regina, SK S4P 3X9, Canada",1,1.0,0,1,1,1,0,654,0,1,0,0,1,0,0,0,0,0,0,0,1,0,1,1,0,0,0,0,1,1,0,0,0,0,50.447003,-104.612242
366,366,1000,"339A Montreal St, Regina, SK S4R 8N4, Canada",2,2.0,0,0,1,1,0,900,0,1,0,0,0,0,0,1,0,0,0,0,0,0,1,0,1,0,0,0,0,0,0,0,0,0,50.484205,-104.598605
367,367,1000,"339A Montreal St, Regina, SK S4R 8N4, Canada",2,2.0,0,0,1,1,0,900,0,1,0,0,0,0,0,1,0,0,0,0,0,0,1,0,1,0,0,0,0,0,0,0,0,0,50.484205,-104.598605
368,368,960,"2167 Angus St, Regina, SK S4T 2A1, Canada",2,1.0,0,0,1,1,0,750,0,1,0,0,0,0,1,0,0,0,0,0,1,0,1,0,1,0,0,0,0,0,0,1,1,0,50.445149,-104.619638
369,369,800,"Cameron St, Regina, SK S4T 2S9, Canada",2,1.0,0,0,0,0,0,900,0,0,0,0,0,0,0,0,1,0,0,0,0,0,1,0,1,0,0,0,0,0,0,0,0,1,50.461029,-104.625419
370,370,1400,"2315 116, Regina S4P 3Y8 SK, Canada",2,1.0,1,1,1,1,0,770,0,1,0,0,0,0,1,0,0,0,0,0,1,1,1,0,1,0,0,0,0,0,0,0,1,0,50.4424462,-104.6166159
371,371,1450,"S4T2N9, Canada",3,2.0,0,0,0,3,0,2400,0,0,0,1,0,0,0,0,1,0,0,0,1,1,1,1,1,0,0,0,0,0,0,0,0,1,50.455086,-104.6239242
372,372,1368,"1701 Horizons Way, Regina, SK, S4Y 0G5",3,2.0,0,0,1,1,1,949,0,1,0,0,1,0,0,0,0,0,0,0,1,1,1,0,1,0,0,0,1,1,0,0,1,0,50.476789,-104.695286
373,373,1400,"2200 Francis St, Regina, SK S4N 2P5, Canada",2,1.0,1,1,1,1,0,900,0,1,0,0,0,0,0,1,0,0,0,0,1,1,1,1,0,0,0,0,0,0,0,0,0,1,50.443144,-104.579382
374,374,1000,"75 Gladstone Ave. N, Yorkton S3N 2A4 SK",2,1.5,0,0,0,2,0,740,0,0,0,0,0,0,0,0,1,0,0,0,1,1,1,1,0,0,0,0,0,0,0,0,0,1,51.212277,-102.474528
375,375,1100,"2053 Montague St, Regina, SK S4T 3J8, Canada",2,1.0,0,1,1,1,0,900,0,0,0,0,1,0,0,0,0,0,0,0,1,0,1,1,1,0,1,0,0,0,0,0,1,0,50.446918,-104.629721
376,376,1100,"235 King St, Regina, SK S4R 4H2, Canada",2,1.0,0,0,0,3,0,950,0,0,0,0,0,0,0,1,0,0,0,0,0,1,1,1,1,0,0,0,0,0,0,0,0,1,50.47544,-104.638405
377,377,765,"2131 Angus Street, Regina, SK, S4T 2A1",1,1.0,0,1,1,0,1,425,0,1,0,0,1,0,0,0,0,0,0,0,1,0,1,1,0,0,0,0,0,0,0,0,1,0,50.445149,-104.619638
378,378,1399,"4040 Gordon Rd., Regina, SK, S4S 6W2",2,1.0,1,1,1,1,1,900,0,1,1,0,1,0,0,0,0,0,0,1,1,0,1,1,0,1,0,0,1,1,0,0,1,0,50.4054515,-104.6404836
379,379,800,"176 2 Ave E, Melville, SK S0A 2P0, Canada",2,1.0,0,0,0,2,0,800,0,1,0,0,0,0,0,0,1,0,0,0,0,0,1,1,0,0,0,0,0,0,0,0,0,1,51.138243,-102.872075
380,380,950,"2948 Quinn Dr, Regina, SK S4P 2W1, Canada",2,1.0,0,0,1,2,1,950,0,0,0,0,0,1,0,0,0,0,0,0,1,1,1,1,0,0,0,0,0,0,0,0,0,1,50.436672,-104.595182
381,381,650,"119 Miles St, Kamsack, SK S0A 1S0, Canada",2,1.0,0,0,0,1,0,620,0,0,0,1,0,0,0,0,1,0,0,0,1,0,1,1,1,0,0,0,0,0,0,0,0,0,51.424929,-102.124354
382,382,1020,"26 Lorne Place, Regina, SK, S4R 8B3",2,1.0,0,1,1,0,1,743,0,1,0,0,1,0,0,0,0,0,0,0,1,1,1,1,0,0,0,0,0,0,0,0,1,0,50.48448,-104.61372
383,383,825,"355  Northview Rd, Yorkton, SK, S3N 2X6",2,1.0,0,1,1,0,1,694,0,1,0,0,1,0,0,0,0,0,0,0,1,0,1,1,0,0,0,0,0,0,0,0,1,0,51.202416,-102.485187
384,384,725,"2045 Wallace St, Regina, SK S4N 4A3, Canada",1,1.0,1,1,1,0,0,600,0,0,0,0,1,0,0,0,0,0,0,0,1,0,1,1,0,0,0,0,0,0,0,0,0,0,50.446327,-104.593635
385,385,900,"2051 Winnipeg St, Regina, SK S4P 1G7, Canada",2,1.0,0,0,0,1,0,800,0,0,0,0,0,1,0,0,0,0,0,0,1,0,1,0,1,0,0,0,0,0,0,0,0,0,50.447006,-104.595067
386,386,1000,"2135 Halifax St, Regina, SK S4P 1V1, Canada",2,1.0,0,0,1,1,0,700,0,0,0,0,1,0,0,0,0,0,0,0,1,0,1,1,0,0,0,0,0,0,0,0,0,0,50.445416,-104.603424
387,387,1050,"Edgar St, Regina, SK S4N, Canada",2,2.0,0,0,0,2,0,850,0,1,0,0,1,0,0,0,0,0,0,0,1,1,1,0,1,0,0,0,0,0,0,0,1,1,50.455928,-104.588009
388,388,1295,"5501 Prefontaine Ave, Regina, SK, S4W 0S3",2,1.0,0,1,1,0,1,840,0,1,0,0,1,0,0,0,0,0,0,0,1,1,1,0,1,0,0,0,1,1,0,0,1,0,50.439672,-104.648915
389,389,800,"1840 St John St, Regina, SK S4P 1R9, Canada",2,1.0,0,1,1,1,0,700,0,0,0,0,0,0,1,0,0,0,0,0,1,0,0,1,0,0,0,0,0,0,0,0,0,1,50.4500034,-104.6019867
390,390,900,"2408 Rothwell St, Regina, SK S4N 2C7, Canada",2,1.0,0,1,1,1,0,900,0,1,1,0,1,0,0,0,0,0,0,0,1,0,0,1,0,0,0,0,0,0,0,0,1,0,50.439768,-104.570701
391,391,850,", Regina s4t3x1 SK, Canada",1,1.0,1,1,1,1,0,700,0,0,0,0,0,1,0,0,0,0,1,1,1,0,0,1,0,0,0,0,0,0,0,0,0,1,50.44543,-104.634041
392,392,860,"2024  14th Ave, Regina, SK, S4P 0X5",1,1.0,0,1,1,0,1,376,0,0,0,0,1,0,0,0,0,0,0,0,1,0,1,1,0,0,0,0,0,0,0,0,0,0,50.444,-104.6101225
393,393,955,"2175  Rae Street, Regina, SK, S4T 2E8",1,1.0,0,1,1,0,1,622,0,1,0,0,1,0,0,0,0,0,0,0,1,0,1,1,0,0,0,0,0,0,0,0,0,0,50.445121,-104.621029
394,394,1450,"2157 Toronto St, Regina, SK S4P 0B8, Canada",3,1.0,0,0,0,1,0,1134,0,0,0,0,0,0,0,0,0,1,0,0,1,1,1,0,1,0,0,0,0,0,0,0,0,1,50.453474,-104.596384
395,395,1195,"26 Shaw St, Regina, SK S4R 3M4, Canada",2,1.0,0,1,1,1,0,850,1,1,0,0,0,0,1,0,0,0,0,0,0,0,1,1,0,1,1,0,0,0,0,1,0,0,50.4811905,-104.621971
396,396,1100,"67 Angus Rd, Regina, SK S4R 3L1, Canada",2,1.0,0,1,1,1,0,1140,0,1,0,0,1,0,0,0,0,0,0,0,0,0,1,1,0,0,0,0,1,0,0,1,1,0,50.479036,-104.620408
397,397,1500,"2315 McIntyre St, Regina, SK S4P 3Y8, Canada",2,1.0,1,1,1,1,0,750,0,1,0,0,0,0,1,0,0,0,0,0,1,0,1,0,1,0,0,0,0,0,0,0,1,0,50.4424462,-104.6166159
398,398,950,"2220 Robinson Street, Regina, SK, S4T 2P9",1,1.0,0,1,1,0,1,640,0,1,0,0,1,0,0,0,0,0,0,0,1,0,1,1,0,0,0,0,0,0,0,0,0,0,50.4436708,-104.6239575
399,399,1030,"2240 Robinson Street, Regina, SK, S4T 2P9",2,1.0,0,1,1,0,1,870,0,1,0,0,1,0,0,0,0,0,0,0,1,0,1,1,0,0,0,0,0,0,0,0,0,0,50.4436708,-104.6239575
400,400,850,"2901  5th Ave, Regina, SK, S4T 0L3",1,1.0,0,1,1,0,1,472,0,0,0,0,1,0,0,0,0,0,0,0,1,0,1,1,0,0,0,0,0,0,0,0,0,0,50.461418,-104.623503
401,401,600,", Regina S4P0P6 SK, Canada",1,1.0,1,1,1,1,0,300,0,0,0,0,1,0,0,0,0,0,0,0,1,0,1,1,0,0,0,0,0,0,0,0,0,0,50.447106,-104.602111
402,402,1098,"1701 Horizons Way, Regina, SK, S4Y 0G5",1,1.0,0,0,1,1,1,648,0,1,0,0,1,0,0,0,0,0,0,0,1,1,1,0,1,0,0,0,1,1,0,0,1,0,50.476789,-104.695286
403,403,1500,"3630 Haughton Rd, Regina, SK S4V 1P1, Canada",2,2.0,0,0,1,1,0,1100,0,1,0,0,0,0,1,0,0,0,0,0,0,1,1,0,1,1,1,0,1,0,0,0,1,0,50.432902,-104.544364
404,404,1150,"2170 Angus St, Regina, SK S4T 1Z9, Canada",2,1.0,0,0,0,2,0,1000,0,0,0,0,0,0,0,0,0,1,0,0,1,1,1,1,1,0,0,0,0,0,0,0,1,0,50.445417,-104.619637
405,405,1500,", S4W0H7, Regina, SK, Canada",2,1.5,0,0,0,1,0,960,0,1,0,0,0,0,0,0,0,1,0,0,1,1,1,0,1,0,0,0,0,0,0,0,0,1,50.436949,-104.649662
406,406,1100,"8702 Herman Cres, Regina, SK S4Y 1A6, Canada",2,1.0,1,1,1,1,0,800,0,1,0,0,0,1,0,0,0,0,1,0,1,1,1,0,1,0,0,0,0,0,0,0,0,0,50.481142,-104.703721
407,407,1250,"232 Rae st, S4R3L9, Regina, SK",2,1.0,0,0,0,3,0,800,0,1,0,0,0,0,0,0,1,0,0,0,1,1,1,1,0,0,0,0,0,0,0,0,0,1,50.474593,-104.621078
408,408,1650,", S0Z7G0, Pilot Butte, SK, Canada",5,2.0,0,0,0,3,0,4000,0,1,0,0,0,1,0,0,0,0,0,0,1,0,1,0,1,0,0,0,0,0,0,0,0,1,50.4792174,-104.4185798
409,409,1075,"1420 North Silverleaf Blvd., Regina, SK, S0G 5K0",2,1.0,0,0,1,0,1,760,0,0,0,0,0,0,0,0,1,0,0,0,1,1,1,0,1,0,0,0,0,0,0,0,0,0,50.646488,-104.350768
410,410,799,"3525 Avonhurst Dr, Regina, SK, S4R 3K2",1,1.0,0,1,1,0,1,575,0,0,0,0,1,0,0,0,0,0,0,0,1,0,1,1,0,0,0,0,0,0,0,0,0,1,50.474007,-104.632346
411,411,1450,"247 Froom Cres, Regina S4N1T2 SK",3,2.0,0,0,0,3,0,1600,0,0,0,0,0,0,0,1,0,0,0,0,1,1,1,0,1,0,0,0,0,0,0,0,0,1,50.441016,-104.56384
412,412,1299,"1060 Dorothy St., Regina, SK, S4X 3C5",2,1.0,0,0,1,0,1,877,0,1,1,0,1,0,0,0,0,0,0,1,1,1,1,0,1,1,0,0,0,1,0,0,1,1,50.476408,-104.68282
413,413,990,"2115 Angus Street, Regina, SK, S4T 2A1",1,1.0,0,1,1,0,1,950,0,1,0,0,1,0,0,0,0,0,0,0,1,0,1,1,0,0,0,0,0,0,0,0,1,0,50.445149,-104.619638
414,414,725,"15  Darlington St. E, Yorkton, SK, S3N 0C1",1,1.0,0,1,1,0,1,486,0,0,0,0,1,0,0,0,0,0,0,0,1,0,1,1,0,0,0,0,0,0,0,0,0,1,51.21642,-102.462835
415,415,1400,"3025 Cameron St, Regina, SK S4S 1W6, Canada",2,2.0,0,0,0,1,0,790,0,1,0,0,0,0,0,0,1,0,0,0,1,1,1,0,1,0,0,0,0,0,0,0,0,1,50.430891,-104.625269
416,416,925,"34 Nollet Ave, Regina, SK S4T 7J8, Canada",1,1.0,0,1,1,1,0,582,0,1,0,0,0,0,1,0,0,0,0,0,1,0,1,1,0,1,0,0,0,0,0,0,1,0,50.481491,-104.667625
417,417,900,"2121 Rae St, Regina, SK S4T 2E8, Canada",1,1.0,0,1,1,1,0,600,1,0,0,0,0,0,1,0,0,0,0,0,1,1,1,1,0,0,0,0,0,0,0,1,0,0,50.445121,-104.621029
418,418,1400,"4147 Green Apple Dr, Regina, SK S4V 2Z6, Canada",2,2.0,0,0,0,2,0,900,0,1,0,0,0,0,1,0,0,0,0,0,0,1,1,0,1,0,0,0,0,0,0,0,1,0,50.42651,-104.52693
419,419,875,"47 Centennial St, Regina, SK S4S 0A2, Canada",1,1.0,0,1,1,1,0,800,0,1,0,0,0,0,1,0,0,0,0,0,0,0,1,1,0,0,0,0,0,0,0,0,1,0,50.419717,-104.593533
420,420,1100,"1061 Birchwood Pl, Regina, SK S4S 7L1, Canada",2,1.0,0,0,1,1,0,800,0,1,0,0,0,0,1,0,0,0,0,0,0,1,1,0,1,0,0,0,0,0,0,0,1,0,50.39981,-104.60367
421,421,1395,"551 Guelph Crescent, Saskatoon, SK S7H 4R3, Canada",3,2.0,0,0,0,2,0,1200,0,0,0,0,0,0,0,1,0,0,0,0,1,1,1,0,1,0,0,0,0,0,0,0,0,1,52.1163051,-106.5681813
422,422,1100,"4016 Buckingham Dr, Regina, SK S4V 3A9, Canada",2,1.0,0,0,1,1,0,800,0,1,0,0,0,0,1,0,0,0,0,0,0,1,1,0,1,0,0,0,0,0,0,0,1,0,50.429342,-104.526301
423,423,1295,"Dakota Dr, Regina, SK S4Z, Canada",2,2.0,0,0,1,2,0,1160,0,1,0,0,0,0,1,0,0,0,0,0,1,1,1,0,1,0,0,0,1,0,0,1,1,0,50.45127,-104.53095
424,424,1285,"3928 Green Falls Drive, Regina, SK, S4V 3M1",2,1.0,0,1,1,0,1,840,0,1,0,0,1,0,0,0,0,0,0,0,0,1,1,0,1,0,0,0,1,1,1,0,1,0,50.431637,-104.550761
425,425,750,"2104  14th Ave, Regina, SK, S4P 0X6",1,1.0,0,1,1,0,1,343,0,0,0,0,1,0,0,0,0,0,0,0,1,0,1,1,0,0,0,0,0,0,0,0,0,0,50.4440233,-104.6158508
426,426,1500,"394 Cedar Meadow Dr, Regina, SK S4X 3E6, Canada",3,2.0,0,0,0,1,0,1150,0,1,0,0,0,0,1,0,0,0,0,0,1,1,1,0,1,0,0,0,0,0,0,1,1,0,50.495398,-104.672378
427,427,1195,"2428 Edgar St, Regina, SK S4N 3L3, Canada",2,2.0,0,0,0,2,0,750,0,0,0,0,0,0,0,0,1,0,0,0,1,0,1,0,1,0,0,0,0,0,0,0,0,1,50.440026,-104.588063
428,428,1348,"502 University Park Drive, Regina, SK, S4V 3L8",2,1.0,0,1,1,1,1,860,0,1,0,0,1,0,0,0,0,0,0,0,1,1,1,0,1,0,0,0,1,0,0,0,1,0,50.431637,-104.550761
429,429,1000,"S4T3M6, Canada",3,2.0,0,0,0,1,0,1000,0,0,0,0,0,0,0,0,1,0,0,0,1,0,1,1,0,0,0,0,0,0,0,0,0,1,50.456622,-104.631156
430,430,1350,"Dakota Dr, Regina, SK S4Z, Canada",2,2.0,0,0,0,1,0,1100,0,1,0,0,0,0,1,0,0,0,0,0,1,1,1,0,1,0,1,0,1,1,1,1,1,0,50.45127,-104.53095
431,431,1800,"S0G 4K0, Canada",5,3.0,0,0,0,3,0,1372,0,1,0,0,0,0,0,0,1,0,0,0,1,1,1,1,1,0,0,0,0,0,0,0,0,1,50.181082,-104.110636
432,432,1590,"5290 Aerodrome Rd, Regina, SK S4W 0P4, Canada",3,1.5,0,0,0,1,0,1100,0,0,0,0,0,0,0,0,0,1,0,0,1,1,1,0,1,0,0,0,0,0,0,0,1,0,50.436949,-104.649662
433,433,1059,"193 Lockwood Rd., Regina, SK, S4S 6G9",1,1.0,1,1,1,0,1,658,0,1,1,0,1,0,0,0,0,0,0,1,1,0,1,1,0,1,0,0,0,0,0,0,1,0,50.4016987,-104.6255671
434,434,821,"22-41 Munroe Pl., Regina, SK, S4S 6A7",1,1.0,0,1,1,0,1,670,0,0,1,0,1,0,0,0,0,0,0,1,1,0,1,1,0,1,0,0,0,0,0,1,1,0,50.414254,-104.599335
435,435,1250,"SE , SE 3418 16 west of 2nd S0G0E0  SK, Canada",3,3.0,0,0,1,3,0,980,0,0,0,0,0,0,0,0,1,0,0,0,1,0,1,0,1,0,0,0,0,0,0,0,0,1,50.617566,-104.166021
436,436,882,"877 Scotia St, Melville, SK S0A 2P0, Canada",2,1.0,0,1,1,1,0,850,0,1,0,0,1,0,0,0,0,0,0,0,0,1,1,0,1,0,0,0,0,0,0,0,1,0,51.138243,-102.872075
437,437,950,"245 3 St NE, Wadena, SK S0A 4J0, Canada",2,1.0,1,1,1,1,1,800,0,1,0,0,1,0,0,0,0,0,1,1,0,0,1,1,0,0,0,0,0,0,0,0,1,0,52.160813,-104.065778
438,438,1509,"Murphy Cres.& Lothian Mews, Regina, SK, S4X 1F5",3,1.0,0,0,1,0,1,1105,0,0,1,0,0,0,0,0,0,1,0,1,1,0,1,0,1,0,0,0,0,0,0,0,1,1,50.47844,-104.679972
439,439,750,"S4P1E9, Canada",1,1.0,0,0,0,0,1,900,0,0,1,0,0,0,0,0,1,0,0,0,1,0,1,1,1,0,0,0,0,0,0,0,0,1,50.451823,-104.595174
440,440,850,"S4P1W5, Canada",2,1.0,0,0,0,1,1,1000,0,0,1,0,0,0,0,0,1,0,0,0,1,0,1,1,1,0,0,0,0,0,0,0,0,1,50.446989,-104.604891
441,441,1650,"617 Smith Dorrien Ave, Esterhazy, SK S0A 0X0, Canada",3,2.0,1,1,1,3,0,1773,0,1,0,1,0,0,0,0,1,0,1,0,0,1,1,0,1,0,0,0,0,0,0,0,0,1,50.687428,-102.017606
442,442,1700,"MacKenzie Way, Regina S4N5M9 SK",3,1.5,0,0,0,1,0,1130,0,0,0,0,0,0,0,0,0,1,0,0,1,1,1,0,1,0,0,0,0,0,0,0,0,1,50.457223,-104.541576
443,443,750,"1440 Angus St, Regina, SK S4T 1Y9, Canada",1,1.0,0,1,1,1,0,800,0,1,0,0,1,0,0,0,0,0,0,0,1,0,0,1,0,1,0,0,0,0,0,0,1,0,50.456636,-104.619659
444,444,700,"233  Bradbrooke Drive, Yorkton, SK, S3N 2K6",1,1.0,0,1,1,0,1,502,0,0,0,0,1,0,0,0,0,0,0,0,1,0,1,1,0,0,0,0,0,0,0,0,0,0,51.202576,-102.479544
445,445,1600,"204 Tyvan St, Francis, SK S0G 1V0, Canada",2,1.0,1,1,1,2,0,1260,0,1,0,1,0,1,0,0,0,0,1,0,0,0,1,0,1,0,0,0,0,0,0,0,1,1,50.10195,-103.870055
446,446,1100,"2604 Lindsay Street, S4N 3E1, Regina, SK",1,1.0,1,1,1,2,0,700,0,0,0,0,0,1,0,0,0,0,0,0,1,1,0,0,1,0,0,0,0,0,0,0,0,1,50.437464,-104.585011
447,447,550,"1240 Angus St, Regina, SK S4T 1Y7, Canada",1,1.0,1,1,1,1,0,600,1,0,0,0,0,0,0,0,1,0,1,1,0,0,1,1,0,0,0,0,0,0,0,0,0,0,50.458947,-104.6196558
448,448,1450,"S4W0E3, Canada",2,1.0,0,0,0,1,0,770,0,0,0,0,0,0,0,0,0,1,0,0,1,1,1,1,1,0,0,0,0,0,0,0,1,1,50.430928,-104.6643399
449,449,1198,"1701 Horizons Way, Regina, SK, S4Y 0G5",2,1.0,0,0,1,1,1,892,0,1,0,0,1,0,0,0,0,0,0,0,1,1,1,0,1,0,0,0,1,1,0,0,1,0,50.476789,-104.695286
450,450,1600,"5125 Beacon Way, Regina, SK S4W 0H8, Canada",2,2.5,0,0,0,1,0,1000,0,1,0,0,0,0,0,0,0,1,0,0,1,1,1,0,1,0,0,0,0,0,0,0,0,1,50.436949,-104.649662
451,451,1000,"Garnet St, Regina, SK, Canada, S4T 2Y2",2,1.0,0,0,0,2,0,850,1,0,0,0,0,0,0,0,1,0,0,0,1,1,1,1,1,0,0,0,0,0,0,0,0,1,50.4598637,-104.6268441
452,452,800,"S4T1Y9, Canada",1,1.0,0,1,1,1,0,800,0,1,0,0,1,0,0,0,0,0,0,0,1,0,1,1,0,1,0,0,0,0,0,0,1,0,50.456636,-104.619659
453,453,1050,"445 Government Rd, Weyburn, SK S4H 0P5, Canada",2,1.0,0,1,1,1,0,750,0,1,0,0,0,0,1,0,0,0,0,0,1,1,0,0,1,0,0,0,1,0,0,0,1,0,49.66566,-103.85821
454,454,1136,"41 Munroe Place, Regina, SK, S4S 6A7",2,1.0,0,1,1,0,1,850,0,1,1,0,1,0,0,0,0,0,0,1,1,0,1,0,1,1,0,0,0,0,0,1,1,1,50.414254,-104.599335
455,455,1129,"4040 Gordon Rd., Regina, SK, S4S 6W2",1,1.0,1,1,1,1,1,675,0,1,1,0,1,0,0,0,0,0,0,1,1,0,1,1,0,1,0,0,1,1,0,0,1,0,50.4054515,-104.6404836
456,456,1300,"331  Broad Street North, Regina, SK, S4R 2X8",2,2.0,0,1,1,0,1,832,0,1,0,0,1,0,0,0,0,0,0,0,1,0,1,1,0,0,0,0,0,0,0,0,1,0,50.4809322,-104.6064483
457,457,795,"2127 Lindsay St, Regina, SK S4N 3C1, Canada",1,1.0,1,1,1,0,0,500,1,1,0,0,1,0,0,0,0,0,0,0,0,0,0,1,0,0,0,0,0,0,0,1,0,1,50.444063,-104.585029
458,458,825,"6  Allanbrooke Dr, Yorkton, SK, S3N 2J7",1,1.0,0,1,1,0,1,565,0,0,0,0,1,0,0,0,0,0,0,0,1,0,1,1,0,0,0,0,0,0,0,0,1,0,51.203522,-102.484233
459,459,820,"2024  14th Ave, Regina, SK, S4P 0X5",1,1.0,0,1,1,0,1,473,0,0,0,0,1,0,0,0,0,0,0,0,1,0,1,1,0,0,0,0,0,0,0,0,0,0,50.444,-104.6101225
460,460,1089,"22-41 Munroe Pl., Regina, SK, S4S 6A7",1,1.0,0,1,1,1,1,670,0,1,1,0,1,0,0,0,0,0,0,1,1,0,1,1,0,1,0,0,0,0,0,1,1,0,50.414254,-104.599335
461,461,875,"321  Fietz St, Yorkton, SK, S3N 3P6",2,1.0,0,1,1,0,1,841,0,1,0,0,1,0,0,0,0,0,0,0,1,1,1,1,0,0,0,0,0,0,0,0,1,1,51.2136295,-102.4416145
462,462,935,"505 Rose St, Regina, SK S4R 1Z4, Canada",2,1.0,0,1,1,1,0,800,0,1,0,0,1,0,0,0,0,0,0,0,0,0,1,1,0,0,0,0,0,0,0,0,1,0,50.470701,-104.607933
463,463,1295,"Dakota Dr, Regina, SK S4Z, Canada",2,2.0,0,0,1,2,0,1160,0,1,0,0,0,0,1,0,0,0,0,0,1,1,1,0,1,0,0,0,1,0,0,1,1,0,50.45127,-104.53095
464,464,850,"2175  Rae Street, Regina, SK, S4T 2E8",1,1.0,0,1,1,0,1,380,0,1,0,0,1,0,0,0,0,0,0,0,1,0,1,1,0,0,0,0,0,0,0,0,0,0,50.445121,-104.621029
465,465,799,"1424 Victoria Ave, Regina, SK, S4P 0P3",1,1.0,0,1,1,0,1,520,0,0,0,0,1,0,0,0,0,0,0,0,1,0,1,0,0,0,0,0,0,0,0,0,0,0,50.447245,-104.600769
466,466,800,"S0G0a4, Canada",3,1.0,0,0,1,2,0,1000,0,0,0,0,0,0,0,0,1,0,0,0,0,0,1,1,1,0,0,0,0,0,0,0,1,1,50.490967,-103.999519
467,467,800,"18  Allanbrooke Dr, Yorkton, SK, S3N 2J7",2,1.0,0,1,1,0,1,694,0,1,0,0,1,0,0,0,0,0,0,0,1,0,1,1,0,0,0,0,0,0,0,0,1,0,51.203522,-102.484233
468,468,825,"363  Northview Rd, Yorkton, SK, S3N 2X6",2,1.0,0,1,1,0,1,694,0,1,0,0,1,0,0,0,0,0,0,0,1,0,1,1,0,0,0,0,0,0,0,0,1,0,51.202416,-102.485187
469,469,1398,"1251 N Galloway Street, Regina, SK, S4X 0M6",3,1.0,0,1,1,1,1,971,0,1,0,0,1,0,0,0,0,0,0,0,1,1,1,0,1,0,0,0,1,0,0,0,1,0,50.49048,-104.671679
470,470,650,"301  Bradbrooke Dr, Yorkton, SK, S3N 2K7",1,1.0,0,1,1,0,1,300,0,1,0,0,1,0,0,0,0,0,0,0,1,0,1,1,0,0,0,0,0,0,0,0,1,0,51.202964,-102.481208
471,471,750,"243  Bradbrooke Drive, Yorkton, SK, S3N 2K4",1,1.0,0,1,1,0,1,476,0,0,0,0,1,0,0,0,0,0,0,0,1,0,1,1,0,0,0,0,0,0,0,0,0,0,51.203496,-102.483379
472,472,725,"320  Gladstone Ave S, Yorkton, SK, S3N 3W3",1,1.0,0,1,1,0,1,618,0,1,0,0,1,0,0,0,0,0,0,0,1,1,1,1,0,0,0,0,0,0,0,0,1,1,51.198518,-102.474325
473,473,1000,"1 St, Estevan, SK S4A, Canada",5,2.0,0,0,0,2,1,1100,0,1,0,0,0,0,0,0,1,0,0,0,1,0,1,0,1,0,0,0,0,0,0,0,0,1,49.1373142,-102.9949342
474,474,1050,"176 2 Ave E, Melville, SK S0A 2P0, Canada",2,1.0,1,1,1,2,1,990,1,1,0,0,0,0,0,0,1,0,1,0,0,0,0,1,0,0,0,0,0,0,0,0,0,1,51.138243,-102.872075
475,475,1450,"1300 Stockton St, Regina, SK S4X 0B8, Canada",2,2.0,1,1,1,1,0,850,0,1,0,0,0,0,1,0,0,0,0,0,1,1,1,0,1,0,1,0,1,1,0,1,1,0,50.5008905,-104.6468794
476,476,1041,"41 Munroe Place, Regina, SK, S4S 6A7",1,1.0,0,1,1,0,1,650,0,1,1,0,1,0,0,0,0,0,0,1,1,0,1,0,1,1,0,0,0,0,0,1,1,1,50.414254,-104.599335
477,477,1350,", S4Z 0A5, Regina, SK",2,1.0,0,1,1,2,0,909,0,1,0,0,0,0,1,0,0,0,0,0,1,1,0,0,1,0,0,0,0,0,0,0,1,0,50.451184,-104.5310949
478,478,850,"1602 Victoria Ave, Regina, SK, S4P 0P7",1,1.0,0,1,1,0,1,405,0,0,0,0,1,0,0,0,0,0,0,0,1,0,1,1,0,0,0,0,0,0,0,0,0,0,50.447246,-104.603576
479,479,1950,"Bentley Dr, Regina, SK S4N 5H7, Canada",3,2.0,0,0,0,3,0,1000,0,0,0,1,0,0,0,0,1,0,0,0,1,1,1,0,1,0,0,0,0,0,0,0,0,1,50.4491757,-104.5448963
480,480,700,"2250 Rose St., Regina, SK, S4P 2A7",1,1.0,0,1,1,0,0,500,0,0,0,0,1,0,0,0,0,0,0,0,1,0,1,1,0,0,0,0,0,0,0,0,0,0,50.443213,-104.608118
481,481,1045,"2125 Osler St, Regina, SK S4P 4G9, Canada",2,1.0,0,1,1,1,0,840,0,1,0,0,0,0,1,0,0,0,0,0,0,0,1,1,0,1,0,0,1,0,0,0,1,0,50.4451429,-104.604911
482,482,1600,"3440 Avonhurst Dr, Regina, SK S4R 3K1, Canada",3,2.5,0,0,0,2,1,1235,0,1,0,0,0,0,0,0,0,1,0,0,1,1,1,0,1,0,0,0,0,0,0,0,0,1,50.4739832,-104.6297015
483,483,800,"1535 11th Ave, Regina, SK S4P 0H3, Canada",1,1.0,0,1,1,0,0,750,0,0,0,0,1,0,0,0,0,0,0,0,1,0,0,0,0,0,0,0,0,0,0,0,0,0,50.450423,-104.602119
484,484,850,"635 17 Ave E, Regina, SK S4N 0Y8, Canada",1,1.0,1,1,1,1,0,650,1,1,0,0,0,1,0,0,0,0,0,0,1,0,1,1,1,0,0,0,0,0,0,0,0,0,50.441337,-104.572894
485,485,800,"1535 11th Ave, Regina, SK S4P 0H3, Canada",1,1.0,0,1,1,0,0,700,0,0,0,0,1,0,0,0,0,0,0,0,1,0,0,0,0,0,0,0,0,0,0,0,0,0,50.450423,-104.602119
486,486,1750,"4025 Hill Ave, Regina, SK S4S 0X7, Canada",2,2.0,0,0,1,1,0,1290,0,1,0,0,0,0,1,0,0,0,0,0,1,1,1,0,1,0,0,0,1,0,0,1,1,0,50.426347,-104.6389305
487,487,1041,"41 Munroe Place, Regina, SK, S4S 6A7",1,1.0,0,1,1,0,1,650,0,1,1,0,1,0,0,0,0,0,0,1,1,0,1,0,1,1,0,0,0,0,0,1,1,1,50.414254,-104.599335
488,488,950,"S0G3N0, Canada",1,1.0,1,1,1,1,0,700,1,0,0,1,1,0,0,0,0,0,1,1,0,0,1,1,0,0,0,0,0,0,0,1,0,0,50.149485,-101.66703
489,489,1250,"4216 Castle Rd, Regina, SK S4S 4W1, Canada",2,2.0,1,0,0,1,1,1200,0,1,0,0,0,0,0,0,0,1,0,0,0,1,1,0,1,0,0,0,0,0,0,0,0,1,50.411003,-104.600045
490,490,1359,"1062 Dorothy St., Regina, SK, S4X 0N9",2,2.0,0,1,1,0,1,915,0,1,1,0,1,0,0,0,0,0,0,1,1,1,1,0,1,1,0,0,1,0,0,0,1,0,50.496512,-104.62422
491,491,954,"1060 Dorothy St., Regina, SK, S4X 3C5",1,1.0,0,0,1,0,1,675,0,1,1,0,1,0,0,0,0,0,0,1,1,1,1,0,1,1,0,0,0,1,0,0,1,1,50.476408,-104.68282
493,493,700,"722 Lalonde St, Whitewood, SK S0G 5C0, Canada",1,1.0,1,1,1,1,0,500,0,0,0,0,1,0,0,0,0,0,1,0,0,0,1,1,0,0,0,0,0,0,0,0,0,0,50.413113,-102.395442
494,494,2000,"S4N6V2, Canada",5,2.0,0,0,0,3,0,1250,0,0,0,0,0,0,0,0,1,0,0,0,1,1,1,1,1,0,0,0,0,0,0,0,1,1,50.458732,-104.561796
495,495,938,"22-41 Munroe Pl., Regina, SK, S4S 6A7",2,1.0,0,1,1,0,1,860,0,0,1,0,1,0,0,0,0,0,0,1,1,0,1,1,0,1,0,0,0,0,0,1,1,0,50.414254,-104.599335
496,496,799,"1424 Victoria Ave, Regina, SK, S4P 0P3",1,1.0,0,1,1,0,1,520,0,0,0,0,1,0,0,0,0,0,0,0,1,0,1,0,0,0,0,0,0,0,0,0,0,0,50.447245,-104.600769
497,497,1750,"14 Milford Crescent, Regina, SK S4N 1K7, Canada",3,2.0,0,0,0,3,1,1300,0,1,0,1,0,0,0,0,1,0,0,0,1,1,1,1,1,0,0,0,0,0,0,0,1,1,50.452663,-104.5512115
498,498,955,"2175  Rae Street, Regina, SK, S4T 2E8",1,1.0,0,1,1,0,1,622,0,1,0,0,1,0,0,0,0,0,0,0,1,0,1,1,0,0,0,0,0,0,0,0,0,0,50.445121,-104.621029
499,499,1000,"S4W0c7, Canada",1,1.0,1,0,1,1,0,500,0,0,0,0,0,1,0,0,0,0,1,1,0,0,1,1,1,0,0,0,0,0,0,0,0,0,50.4340146,-104.6650159
500,500,1650,"Scarth St, Regina, SK S4P 2G9, Canada",1,1.0,1,1,1,1,0,868,1,1,0,0,0,0,1,0,0,0,1,1,0,1,1,0,1,0,0,0,1,0,0,0,0,0,50.450304,-104.61082
501,501,600,"176 2 Ave E, Melville, SK S0A 2P0, Canada",1,1.0,0,0,0,2,0,500,1,0,0,0,0,0,0,0,1,0,0,0,0,0,1,1,0,0,0,0,0,0,0,0,0,1,51.138243,-102.872075
502,502,1200,"Arthur St, Regina, SK S4R 4X2, Canada",3,1.0,0,0,0,2,0,900,0,1,0,0,0,0,0,0,1,0,0,0,0,0,1,0,1,0,0,0,0,0,0,0,0,1,50.4733352,-104.648169
503,503,1249,"4040 Gordon Rd., Regina, SK, S4S 6W2",1,1.0,1,1,1,1,1,900,0,1,1,0,1,0,0,0,0,0,0,1,1,0,1,1,0,1,0,0,1,1,0,0,1,0,50.4054515,-104.6404836
504,504,900,"3838 Retallack Street, Regina, SK, S4S 3B8",1,1.0,0,1,1,0,1,600,0,1,0,0,1,0,0,0,0,0,0,0,1,0,1,1,0,0,0,0,0,0,0,0,0,0,50.4185913,-104.6225055
505,505,1300,"2134 Halifax St, Regina, SK S4P 1T9, Canada",1,1.0,1,1,1,1,1,800,1,0,0,0,0,0,0,0,1,0,1,1,0,0,1,1,0,0,0,0,0,0,0,0,0,1,50.4447762,-104.6034216
506,506,1100,", Regina  S4N5L2 SK, Canada",3,1.0,0,0,0,0,0,980,0,1,0,0,0,0,0,1,0,0,0,0,1,0,1,0,1,0,0,0,0,0,0,0,0,1,50.451787,-104.542146
507,507,1059,"111 Lockwood Road, Regina, SK, S4S 3G5",1,1.0,1,1,1,0,0,679,0,1,0,0,1,0,0,0,0,0,0,0,1,1,1,0,0,0,0,0,1,0,1,0,1,0,50.4053152,-104.6254549
508,508,1300,"302 Gore Pl, Regina, SK S4T 7S4, Canada",2,1.0,0,0,1,1,1,890,0,1,0,0,0,0,1,0,0,0,0,0,1,1,1,0,1,0,0,0,0,0,0,0,1,0,50.4823519,-104.6701501
509,509,1250,"1219 Broadway Ave, Saskatoon, SK S7H 2A4, Canada",2,2.0,0,0,0,1,0,785,0,0,0,1,0,0,0,0,1,0,0,0,1,1,1,0,1,0,0,0,0,0,0,0,0,1,52.113517,-106.656763
510,510,1250,"729 Broadway Ave, S4N 1C4, Regina, SK",2,1.0,0,0,0,1,0,900,0,1,0,0,0,0,0,1,0,0,0,0,1,1,1,0,1,0,0,0,0,0,0,0,1,1,50.43764,-104.590909
511,511,1195,"S4R3M4, Canada",2,1.0,0,1,1,1,0,850,1,1,0,0,0,0,1,0,0,0,0,0,0,0,1,1,0,1,1,0,0,0,0,1,0,0,50.4811905,-104.621971
512,512,1120,"453 Retallack Street, Regina, SK, S4R 3N4",2,1.0,0,1,1,0,1,1000,0,1,0,0,1,0,0,0,0,0,0,0,1,0,1,1,0,0,0,0,0,0,0,0,0,0,50.4714575,-104.622552
513,513,1120,"445  Retallack Street, Regina, SK, S4R 3N4",2,1.0,0,1,1,0,1,1000,0,1,0,0,1,0,0,0,0,0,0,0,1,0,1,1,0,0,0,0,0,0,0,0,0,0,50.4714575,-104.622552
514,514,1200,"4677 James Hill, s4w0c7, Harbour Landing, SK",2,1.0,0,0,0,1,0,882,0,0,0,0,0,0,0,0,1,0,0,0,1,1,1,0,1,0,0,0,0,0,0,0,1,1,50.4340146,-104.6650159
515,515,795,"49 Ashwood Pl, Yorkton, SK S3N 2N1, Canada",2,1.0,0,0,1,2,0,825,0,0,0,0,1,0,0,0,0,0,0,0,0,0,1,1,0,0,0,0,0,0,0,0,0,1,51.198614,-102.486477
516,516,929,"193 Lockwood Rd, Regina, SK S4S 6G9, Canada",1,1.0,1,1,1,0,1,850,0,1,1,0,1,0,0,0,0,0,1,1,0,0,0,1,0,0,0,0,0,0,0,0,1,0,50.4016987,-104.6255671
517,517,800,"2415 Dewdney Ave, Regina, SK S4R 8R2, Canada",1,1.0,1,1,1,3,0,600,1,1,0,0,1,0,0,0,0,0,1,1,0,0,1,1,0,0,0,0,1,1,1,0,0,0,50.455065,-104.550169
518,518,2650,"2055 Rose St, Regina, SK S4P 2A3, Canada",2,2.0,1,1,1,1,0,1250,0,1,0,1,0,0,1,0,0,0,0,0,1,1,1,0,1,1,0,0,1,1,0,0,1,0,50.446969,-104.607971
519,519,800,"3824 Regina Ave, Regina, SK S4S 0H7, Canada",1,1.0,0,1,1,1,0,700,0,0,0,0,1,0,0,0,0,0,0,0,1,0,1,1,0,1,0,0,0,0,0,1,0,0,50.435007,-104.635569
520,520,850,"3945 Robinson Street, Regina, SK, S4S 3C7",2,1.0,0,0,0,0,0,900,0,0,0,0,1,0,0,0,0,0,0,0,1,0,0,0,0,0,0,0,0,0,0,0,0,0,50.416219,-104.623885
521,521,1200,"7234 Dewdney Ave, Regina, SK S4T 1E6, Canada",3,1.0,0,0,0,2,0,1230,0,0,0,0,0,0,0,1,0,0,0,0,0,0,1,0,1,0,0,0,0,0,0,0,0,1,50.455075,-104.685916
522,522,1700,"1250 Wessex Place, S4N 7S2, Regina, SK",3,3.0,0,0,0,2,1,1100,0,1,0,1,0,0,0,0,0,1,0,0,1,0,0,0,1,0,0,0,0,0,0,0,1,0,50.49772,-104.662097
523,523,1250,"S4S1E4, Canada",1,1.0,1,1,1,3,0,1055,1,1,0,1,0,0,0,0,1,0,1,0,1,1,1,1,1,0,0,0,0,0,0,0,0,1,50.423473,-104.625948
524,524,1200,"College Ave, Regina, SK S4P 4V5, Canada",2,1.0,0,0,0,0,1,970,0,1,1,0,0,0,0,0,1,0,0,0,1,1,1,1,1,0,0,0,0,0,0,0,1,1,50.440739,-104.60703
525,525,1195,"S3N 2H1, Canada",2,1.5,1,1,1,0,1,600,0,1,0,1,0,1,0,0,0,0,1,0,1,0,1,1,1,0,0,0,0,0,0,0,0,1,51.212762,-102.481489
526,526,1060,"1830 College Avenue, Regina S4P 1C2 SK",1,1.0,0,1,1,0,0,650,0,1,0,0,1,0,0,0,0,0,0,0,1,0,1,1,0,0,1,0,1,0,0,1,1,0,50.440796,-104.582263
527,527,1064,"5035 Sherwood Dr., Regina, SK, S4R 4C1",1,1.0,0,1,1,0,1,700,0,1,1,0,1,0,0,0,0,0,0,1,1,1,1,1,0,1,0,0,0,1,0,1,1,0,50.477016,-104.652612
528,528,1100,"69  Kleisinger Cres, Regina, SK, S4R 6Z4",2,1.0,0,1,1,0,1,761,0,1,0,0,1,0,0,0,0,0,0,0,1,0,1,1,0,0,0,0,0,0,0,0,1,0,50.484498,-104.607979
529,529,725,"851 Scotia Street, S0A 2P0, Melville, SK",2,1.0,0,1,1,1,0,800,0,0,0,0,1,0,0,0,0,0,0,0,1,0,1,1,0,0,0,0,0,0,0,0,1,0,51.138243,-102.872075
530,530,1600,"1914 Hamilton St, Regina, SK S4P 3N6, Canada",1,1.0,1,1,1,1,1,882,1,1,0,1,0,0,1,0,0,0,0,0,1,1,1,0,1,1,0,1,1,1,0,1,0,0,50.4487677,-104.6093955
531,531,1000,"Carnduff, SK S0C 0S0, Canada",2,2.0,1,1,1,3,1,959,0,1,0,0,0,0,0,0,0,1,0,0,0,1,1,1,1,0,0,0,0,0,0,0,1,1,49.037822,-101.687175
532,532,1250,"661 Royal St, Regina, SK S4T 4Z3, Canada",2,1.0,0,0,0,0,1,860,0,1,0,0,0,0,0,0,1,0,0,0,1,1,1,1,0,0,0,0,0,0,0,0,0,1,50.468577,-104.651054
533,533,1030,"2240 Robinson Street, Regina, SK, S4T 2P9",2,1.0,0,1,1,0,1,870,0,1,0,0,1,0,0,0,0,0,0,0,1,0,1,1,0,0,0,0,0,0,0,0,0,0,50.4436708,-104.6239575
534,534,1268,"700 Gladmer Pk., Regina, SK, S4P 2W9",3,1.0,0,0,0,1,1,1056,0,0,1,0,0,0,0,0,0,1,0,1,1,1,1,0,1,0,0,0,0,0,0,0,1,1,50.437079,-104.605561
535,535,933,"22-41 Munroe Pl., Regina, SK, S4S 6A7",2,1.0,0,1,1,1,1,860,0,1,1,0,1,0,0,0,0,0,0,1,1,0,1,1,0,1,0,0,0,0,0,1,1,0,50.414254,-104.599335
536,536,938,"22-41 Munroe Pl., Regina, SK, S4S 6A7",2,1.0,0,1,1,0,1,860,0,0,1,0,1,0,0,0,0,0,0,1,1,0,1,1,0,1,0,0,0,0,0,1,1,0,50.414254,-104.599335
537,537,1100,"1061 Birchwood Pl, Regina, SK S4S 7L1, Canada",2,1.0,0,0,1,1,0,800,0,1,0,0,0,0,1,0,0,0,0,0,0,1,1,0,1,0,0,0,0,0,0,0,1,0,50.39981,-104.60367
538,538,1150,"405 2305 Victoria Avenue, Regina S4S 1B6 SK",1,1.0,1,1,1,1,0,700,1,1,0,0,0,0,1,0,0,0,0,0,1,1,1,1,0,0,1,0,1,0,0,1,0,0,50.424975,-104.627844
539,539,850,"Embury St, Regina, SK S4N 2L7, Canada",1,1.0,1,1,1,3,1,650,1,0,0,0,0,1,0,0,0,0,0,0,0,0,1,1,0,0,0,0,0,0,0,0,0,1,50.445411,-104.575715
540,540,930,"30 Spence Street, Regina, SK, S4S 4H4",1,1.0,0,1,1,0,1,675,0,1,0,0,1,0,0,0,0,0,0,0,1,0,1,1,0,0,0,0,0,0,0,0,1,0,50.4132335,-104.6154105
541,541,950,"1454  Rae St, Regina, SK, S4T 2C5",2,1.0,0,1,1,0,1,684,0,1,0,0,1,0,0,0,0,0,0,0,1,0,1,1,0,0,0,0,0,0,0,0,1,0,50.455924,-104.621176
542,542,900,"Curtiss Ave, Regina, SK S0G, Canada",1,1.0,1,1,1,1,0,1300,1,1,0,0,0,1,0,0,0,0,1,0,0,0,0,1,0,0,0,0,0,0,0,0,0,0,50.4132733,-104.645034
543,543,1000,"340 Begg St W, Swift Current, SK S9H 0W1, Canada",3,2.0,0,0,0,3,0,1000,0,0,0,0,0,0,0,1,0,0,0,0,1,0,1,0,1,0,0,0,0,0,0,0,0,1,50.292768,-107.805857
544,544,909,"2630 6 Ave N, Regina, SK S4R 0P2, Canada",2,1.0,1,1,1,1,0,900,0,0,0,0,1,0,0,0,0,0,0,0,1,0,1,1,0,0,0,0,0,0,0,1,1,0,50.478954,-104.618794
545,545,1600,"89 McNab Crescent, Regina, SK S4S 4B3, Canada",3,1.0,0,0,0,2,0,1000,0,0,0,0,0,0,0,0,1,0,0,0,0,0,1,1,0,0,0,0,0,0,0,0,0,1,50.419232,-104.604957
546,546,1625,"1420 North Silverleaf Blvd., Regina, SK, S0G 5K0",3,2.0,0,0,1,0,1,1121,0,0,0,0,0,0,0,0,1,0,0,0,1,1,1,0,1,0,0,0,0,0,0,0,0,0,50.646488,-104.350768
547,547,525,"209 Lynch St, Maryfield, SK S0G 3K0, Canada",2,1.0,0,0,0,2,0,1000,0,0,0,0,0,0,0,0,1,0,0,0,0,0,1,0,1,0,0,0,0,0,0,0,0,1,49.792345,-101.555317
549,549,950,"960 Garnet Street, Regina, SK, S4T 2X5",3,1.0,0,0,0,0,0,720,0,0,0,0,0,0,0,0,1,0,0,0,1,0,0,0,0,0,0,0,0,0,0,0,0,0,50.464392,-104.626846
550,550,1360,", Weyburn S4H0A2 SK, Canada",3,2.5,0,0,1,2,0,1260,0,1,0,0,0,0,0,0,0,1,0,0,0,1,1,0,1,0,0,0,0,0,0,0,0,0,49.660852,-103.85624
551,551,450,", Weyburn S4H0A2 SK, Canada",1,1.0,0,1,1,1,0,450,0,0,0,0,0,1,0,0,0,0,0,0,0,0,0,0,0,0,0,0,0,0,0,0,0,0,49.660852,-103.85624
552,552,1450,"1640 Dakota Dr, Regina, SK S4Z 0A1, Canada",2,1.0,0,0,1,2,0,940,0,1,0,0,0,0,1,0,0,0,0,0,1,1,1,0,1,0,0,0,1,1,1,0,1,0,50.4523907,-104.5316401
553,553,2500,"2500 Elphinstone St, Regina, SK S4S 0J6, Canada",4,2.0,1,1,1,2,0,900,0,1,0,0,0,0,0,1,0,0,0,0,0,0,0,0,1,0,0,0,0,0,0,0,0,0,50.438607,-104.63111
554,554,750,"65 Ambassador Trailer Ct, Estevan, SK S4A 2A2, Canada",3,1.0,0,0,0,2,1,1088,0,0,0,0,0,0,0,0,1,0,0,0,0,0,0,0,1,0,0,0,0,0,0,0,0,1,49.103604,-103.119287
555,555,1000,"Somerville road , Rae street  S4s2y5 SK, Canada",2,2.0,0,1,1,1,0,1200,0,0,0,0,0,1,0,0,0,0,1,0,1,0,0,1,0,0,0,0,0,0,0,0,0,1,50.409616,-104.621184
556,556,1000,", Harbour landing  S4w0c7 SK, Canada",1,1.0,1,0,1,0,0,500,0,0,0,0,0,1,0,0,0,0,1,1,1,0,1,0,1,0,0,0,0,0,0,0,0,0,50.4340146,-104.6650159
557,557,950,"512 4th Ave N, Saskatoon, SK S7K 2M7, Canada",1,1.0,0,1,1,1,0,626,0,1,0,0,1,0,0,0,0,0,0,0,1,1,1,0,1,0,0,0,0,0,0,0,1,0,52.134828,-106.657487
558,558,700,"Retallack St, Regina, SK S4T 2H3, Canada",2,1.0,0,0,0,1,0,800,0,0,0,0,0,0,0,0,1,0,0,0,0,0,1,0,1,0,0,0,0,0,0,0,0,1,50.462858,-104.622505
559,559,750,"509 Birtle St, Moosomin, SK S0G 3N0, Canada",1,1.0,1,1,1,1,0,400,1,1,0,0,1,0,0,0,0,0,1,1,0,0,0,1,0,0,0,0,0,0,0,0,1,0,50.149485,-101.66703
560,560,1000,", Leslie S0A 2E0 SK, Canada",1,1.0,0,0,0,1,1,100,0,0,0,0,0,0,0,0,1,0,0,0,1,0,0,0,0,0,0,0,0,0,0,0,0,1,51.580737,-103.77508
561,561,1800,"303 Royal Street, S4R4Y2, Regina, SK",4,2.0,0,0,0,2,0,950,0,0,0,0,0,0,0,0,1,0,0,0,1,0,1,0,1,0,0,0,0,0,0,0,1,1,50.4742244,-104.6524593
562,562,900,"1800 York Street, Regina, SK, S4T 4R2",1,1.0,0,0,0,0,1,650,0,1,0,0,1,0,0,0,0,0,0,0,1,1,1,0,0,0,0,0,0,0,0,0,0,0,50.450483,-104.645142
563,563,600,"Souris Ave, Frobisher, SK S0C 0Y0, Canada",2,1.0,0,0,0,2,0,900,0,1,0,0,1,0,0,0,0,0,0,0,1,0,1,0,1,0,0,0,0,0,0,0,0,0,49.277986,-102.387412
564,564,800,"431 17 Ave E, Regina, SK S4N 0Y4, Canada",1,1.0,0,1,1,1,0,800,0,0,0,0,1,0,0,0,0,0,0,0,1,0,1,1,0,0,0,0,0,0,0,0,0,0,50.439103,-104.5786
565,565,500,"S4H1W7, Canada",2,2.5,1,1,1,1,0,1234,1,1,0,0,0,0,0,0,1,0,1,0,0,1,1,1,1,0,0,0,0,0,0,0,1,1,49.657531,-103.858081
566,566,1400,"865 Queen St, Regina, SK S4T 4A6, Canada",3,2.0,1,1,1,1,0,1280,0,1,0,0,0,0,0,0,1,0,0,0,1,1,1,1,1,0,0,0,0,0,0,0,1,1,50.466043,-104.636925
567,567,800,"S4T0L2, Canada",2,1.0,0,0,0,1,1,700,0,0,0,0,0,0,0,0,1,0,0,0,0,0,1,1,0,0,0,0,0,0,0,0,0,1,50.477158,-104.622068
568,568,1300,"3420 Park St, Regina, SK S4V 2M9, Canada",3,1.5,0,1,1,1,0,980,0,0,0,0,0,0,1,0,0,0,0,0,1,1,1,0,1,0,0,0,1,0,0,0,1,0,50.427818,-104.57389
569,569,938,"22-41 Munroe Pl., Regina, SK, S4S 6A7",2,1.0,0,1,1,0,1,860,0,0,1,0,1,0,0,0,0,0,0,1,1,0,1,1,0,1,0,0,0,0,0,1,1,0,50.414254,-104.599335
570,570,989,"22-41 Munroe Pl., Regina, SK, S4S 6A7",2,1.0,0,1,1,1,1,860,0,1,1,0,1,0,0,0,0,0,0,1,1,0,1,1,0,1,0,0,0,0,0,1,1,0,50.414254,-104.599335
571,571,1375,"2830 Gordon Rd, Regina, SK S4S 6A1, Canada",2,1.0,1,1,1,1,0,926,0,1,0,0,0,0,1,0,0,0,0,0,1,1,1,1,0,0,0,0,1,1,1,0,1,0,50.4045935,-104.6200654
572,572,1300,"331  Broad Street North, Regina, SK, S4R 2X8",2,2.0,0,1,1,0,1,832,0,1,0,0,1,0,0,0,0,0,0,0,1,0,1,1,0,0,0,0,0,0,0,0,1,0,50.4809322,-104.6064483
573,573,1190,"4013 Harbour Landing Dr, Regina, SK, S4W 0E5",2,1.0,0,0,1,0,1,691,0,1,0,0,1,0,0,0,0,0,0,0,1,1,1,0,1,0,0,0,1,1,1,0,1,0,50.430928,-104.6643399
574,574,1268,"700 Gladmer Pk., Regina, SK, S4P 2W9",3,1.0,0,0,0,1,1,1056,0,0,1,0,0,0,0,0,0,1,0,1,1,1,1,0,1,0,0,0,0,0,0,0,1,1,50.437079,-104.605561
575,575,799,"1424 Victoria Ave, Regina, SK, S4P 0P3",1,1.0,0,1,1,0,1,520,0,0,0,0,1,0,0,0,0,0,0,0,1,0,1,0,0,0,0,0,0,0,0,0,0,0,50.447245,-104.600769
576,576,900,"5430 McClelland Dr, Regina, SK S4W 0K7, Canada",1,1.0,0,0,0,1,0,400,1,0,0,0,0,1,0,0,0,0,1,0,1,1,1,0,1,0,0,0,0,0,0,0,0,0,50.436949,-104.649662
577,577,2100,"2300 Broad St, Regina, SK S4P 1Y8, Canada",2,2.0,0,1,1,1,1,1400,0,1,0,1,0,0,1,0,0,0,0,0,1,1,1,1,1,0,1,0,1,1,0,1,1,0,50.442326,-104.606652
578,578,975,"3832 Rae St, Regina, SK S4S 3A1, Canada",2,1.0,0,1,1,1,1,770,0,1,0,0,1,0,0,0,0,0,0,0,1,0,1,1,0,1,1,0,0,0,0,1,0,1,50.41858,-104.621018
579,579,685,", Canora S0A0L0 SK, Canada",2,1.0,0,0,0,1,0,800,0,0,0,0,0,0,0,0,1,0,0,0,1,0,1,0,1,0,0,0,0,0,0,0,0,1,51.51229,-102.300794
580,580,1500,"2157 Toronto St, Regina, SK S4P 0B8, Canada",3,1.0,0,0,0,1,0,1134,1,0,0,0,0,0,1,0,0,0,0,0,1,1,1,0,1,0,0,0,0,0,0,0,1,1,50.453474,-104.596384
581,581,900,"2353 Ottawa St, Regina, SK S4P 1R2, Canada",2,1.0,0,1,1,1,0,800,0,0,0,0,1,0,0,0,0,0,0,0,1,0,1,1,0,0,0,0,0,0,0,0,0,1,50.4424372,-104.6005612
582,582,1239,"700 Gladmer Pk., Regina, SK, S4P 2W9",2,1.0,0,0,0,1,1,864,0,0,1,0,0,0,0,0,0,1,0,1,1,1,1,0,1,0,0,0,0,0,0,0,1,1,50.437079,-104.605561
583,583,1350,"2315 McIntyre Street, Regina, SK, S4P 3Y8",1,1.0,0,0,0,0,0,725,0,1,0,0,0,0,0,0,1,0,0,0,1,0,1,0,0,0,0,0,0,0,0,0,0,0,50.4424462,-104.6166159
584,584,1500,"126 Oakview Drive, Regina, SK, S4R 0E4",4,2.5,0,0,0,0,0,1188,0,0,0,0,0,0,0,0,1,0,0,0,1,0,0,0,0,0,0,0,0,0,0,0,0,0,50.48731,-104.609417
585,585,1200,"38 Spence Street, Regina, SK, S4S 4H4",2,1.0,0,0,0,0,0,900,0,1,0,0,0,0,0,0,1,0,0,0,1,1,1,0,0,0,0,0,0,0,0,0,0,0,50.4132335,-104.6154105
586,586,1000,", Regina S4W 0K8 SK, Canada",1,1.0,1,1,1,0,0,800,1,1,0,0,0,1,0,0,0,0,1,1,1,0,1,0,1,0,0,0,0,0,0,0,0,1,50.436949,-104.649662
587,587,750,"S4V3N4, Canada",1,1.0,1,1,1,1,0,750,1,1,0,0,0,1,0,0,0,0,1,1,0,1,1,1,1,0,0,0,0,0,0,0,1,1,50.440083,-104.589336
588,588,1350,"51 Rodenbush Dr, Regina, SK S4R 8C7, Canada",2,1.0,1,1,1,1,0,907,1,1,0,0,0,0,1,0,0,0,1,1,0,1,1,1,0,0,0,0,0,0,1,0,1,0,50.494665,-104.597102
589,589,950,"2334 Broder St, Regina, SK S4N 3S8, Canada",2,1.0,0,0,0,1,0,900,0,0,0,0,0,0,0,0,1,0,0,0,1,0,0,1,0,0,0,0,0,0,0,0,0,0,50.442286,-104.590922
590,590,550,"136 Solberg St, Milestone, SK S0G 3L0, Canada",2,1.0,0,0,0,2,0,672,0,0,0,0,0,0,0,0,1,0,0,0,1,0,1,0,1,0,0,0,0,0,0,0,0,1,50.052594,-104.627547
591,591,850,"2175  Rae Street, Regina, SK, S4T 2E8",1,1.0,0,1,1,0,1,380,0,1,0,0,1,0,0,0,0,0,0,0,1,0,1,1,0,0,0,0,0,0,0,0,0,0,50.445121,-104.621029
592,592,1100,"26 Shaw Street -, Regina, SK, S4R 3M4",2,1.0,0,0,0,0,0,817,0,1,0,0,0,0,0,0,1,0,0,0,1,0,1,0,0,0,0,0,0,0,0,0,0,0,50.4811905,-104.621971
593,593,550,"628 Norway Rd, Canora, SK S0A 0L0, Canada",1,1.0,0,1,1,1,0,500,1,0,0,0,1,0,0,0,0,0,0,0,1,0,0,1,0,0,0,0,0,0,0,1,0,1,51.51229,-102.300794
594,594,1350,"70 Froom Crescent, Regina, SK S4N 1S7, Canada",3,1.0,1,1,1,1,0,1304,0,0,0,0,1,0,0,0,0,0,0,0,0,0,0,1,0,0,0,0,0,0,0,0,1,0,50.445401,-104.566171
595,595,950,"4435 A Dewdney Ave, REGINA S4t 1b3 SK",2,1.0,0,0,0,2,0,1060,0,0,0,0,0,1,0,0,0,0,0,0,1,1,1,0,1,0,0,0,0,0,0,0,0,1,50.455142,-104.643626
596,596,600,"S3N1m3, Canada",1,1.0,1,1,1,1,0,450,0,0,0,0,1,0,0,0,0,0,0,0,1,0,1,1,0,0,1,0,0,0,0,0,0,1,51.212175,-102.464135
597,597,800,"1560 Alexandra St, Regina, SK S4T 4N9, Canada",1,1.0,0,1,1,1,0,650,0,0,0,0,1,0,0,0,0,0,0,0,1,0,1,1,0,0,0,0,0,0,0,0,0,0,50.455447,-104.643791
598,598,800,"1130 Angus Street, Regina S4T 1Y5 SK",3,1.0,0,0,0,1,1,1000,0,0,0,0,0,0,0,0,1,0,0,0,1,0,0,0,1,0,0,0,0,0,0,0,0,1,50.461302,-104.619645
599,599,123,"2119 Osler St, Regina, SK S4P 1W7, Canada",1,1.0,0,1,1,0,1,750,0,1,0,0,1,0,0,0,0,0,0,0,1,0,1,1,0,1,1,0,0,0,0,0,0,0,50.444777,-104.604766
600,600,1150,"9 6 St, Weyburn, SK S4H 0A8, Canada",2,2.0,0,0,1,1,0,1100,0,1,0,0,0,0,1,0,0,0,0,0,1,1,1,0,1,0,0,0,0,0,0,0,1,0,49.6600443,-103.8517174
601,601,795,"#4-2223 McIntyre Street , Regina s4p 2s1 SK",1,1.0,0,1,1,1,0,640,0,1,0,0,1,0,0,0,0,0,0,0,0,0,1,1,0,1,0,0,0,0,0,1,0,0,50.443242,-104.616468
602,602,1075,", s4p2s1, Regina, SK",2,1.0,0,1,1,1,0,980,0,1,0,0,1,0,0,0,0,0,0,0,0,0,1,1,0,1,0,0,0,0,0,1,0,0,50.443242,-104.616468
603,603,825,"2504 Argyle St, Regina, SK S4S 0J2, Canada",1,1.0,0,1,0,1,0,900,0,0,0,0,1,0,0,0,0,0,0,0,1,1,1,1,0,0,0,0,0,0,0,0,0,0,50.438564,-104.632575
604,604,750,"1610 Angus St, Regina, SK S4T 1Z2, Canada",1,2.5,0,1,1,1,0,600,0,0,0,0,1,0,0,0,0,0,0,0,0,0,1,1,0,1,0,0,0,0,0,0,0,0,50.453236,-104.6196076
605,605,1500,"S4X0J1, Canada",2,1.0,0,1,1,1,0,963,1,1,0,0,0,0,1,0,0,0,0,0,1,1,1,0,1,0,1,0,0,0,0,1,1,0,50.507111,-104.660799
606,606,650,"1610 Angus St, Regina, SK S4T 1Z2, Canada",1,2.5,0,1,1,1,0,300,0,0,0,0,1,0,0,0,0,0,0,0,0,0,0,1,0,0,0,0,0,0,0,0,0,0,50.453236,-104.6196076
607,607,1100,"357 Froom Crescent, Regina, SK S4N 1T4, Canada",2,1.0,1,1,1,1,0,900,0,0,0,0,0,1,0,0,0,0,0,0,0,1,1,0,1,0,0,0,0,0,0,0,0,0,50.439919,-104.566925
608,608,935,"505 Rose St, Regina, SK S4R 1Z4, Canada",2,1.0,0,1,1,1,0,800,0,1,0,0,1,0,0,0,0,0,0,0,0,0,1,1,0,0,0,0,0,0,0,0,1,0,50.470701,-104.607933
609,609,940,"331  Broad Street North, Regina, SK, S4R 2X8",1,1.0,0,1,1,0,1,659,0,1,0,0,1,0,0,0,0,0,0,0,1,0,1,1,0,0,0,0,0,0,0,0,1,0,50.4809322,-104.6064483
610,610,750,"2104  14th Ave, Regina, SK, S4P 0X6",1,1.0,0,1,1,0,1,343,0,0,0,0,1,0,0,0,0,0,0,0,1,0,1,1,0,0,0,0,0,0,0,0,0,0,50.4440233,-104.6158508
611,611,1400,"2126 Elliott St, Regina, SK S4N 3H2, Canada",3,1.0,0,0,0,1,1,954,0,0,0,0,0,0,0,0,1,0,0,0,0,0,1,0,1,0,0,0,0,0,0,0,0,1,50.451827,-104.586441
612,612,900,"2504 Argyle St, Regina, SK S4S 0J2, Canada",1,1.0,0,1,1,1,0,900,0,0,0,0,0,0,0,1,0,0,0,0,1,1,1,1,0,0,0,0,0,0,0,0,0,0,50.438564,-104.632575
613,613,1200,"1411 Fleet St, Regina, SK S4N 5R6, Canada",2,1.0,1,1,1,0,0,900,1,1,0,0,0,1,0,0,0,0,1,0,0,0,1,1,0,0,0,0,0,0,0,0,0,0,50.457337,-104.548649
614,614,625,"117 Main St, Radville, SK S0C 2G0, Canada",1,1.0,1,1,1,1,0,600,0,0,0,0,1,0,0,0,0,0,0,0,1,0,1,1,0,1,1,0,0,0,0,0,1,1,49.438755,-104.202276
616,616,1000,", Harbour Landing S4W0K5 SK",2,1.0,0,0,0,2,0,800,0,0,0,0,0,1,0,0,0,0,1,0,1,1,1,0,1,0,0,0,0,0,0,0,0,0,50.436949,-104.649662
617,617,400,"s4a0b8, Canada",5,4.0,1,1,1,3,1,1500,0,0,0,0,0,0,0,0,1,0,0,0,1,0,0,0,0,0,0,0,0,0,0,0,0,1,49.12956,-102.987013
618,618,995,"2420 6 Ave N, Regina, SK S4R 3B4, Canada",2,1.0,0,1,1,1,1,800,0,1,0,0,1,0,0,0,0,0,0,0,0,0,0,1,0,0,0,0,0,0,0,1,1,0,50.477344,-104.615321
619,619,895,"2420 6 Ave N, Regina, SK S4R 3B4, Canada",1,1.0,0,1,1,1,1,650,0,1,0,0,1,0,0,0,0,0,0,0,0,0,1,1,0,0,0,0,0,0,0,1,1,0,50.477344,-104.615321
620,620,800,"357 N Broad St, Regina, SK S4R 2X8, Canada",1,1.0,0,1,1,1,0,650,0,1,0,0,1,0,0,0,0,0,0,0,0,0,1,1,0,0,0,0,0,0,0,0,1,0,50.4809322,-104.6064483
621,621,850,"357 N Broad St, Regina, SK S4R 2X8, Canada",2,1.0,0,1,1,1,0,900,0,1,0,0,1,0,0,0,0,0,0,0,0,0,1,1,0,0,0,0,0,0,0,0,1,0,50.4809322,-104.6064483
622,622,1100,"2305 Victoria Ave, Regina, SK S4P 0S7, Canada",1,1.0,0,1,1,1,0,500,1,0,0,0,0,0,1,0,0,0,0,0,1,1,1,1,0,0,0,0,0,0,0,0,0,0,50.447071,-104.581973
623,623,1400,", YORKTON S3N 0Z7 SK, Canada",4,2.0,0,0,0,3,0,850,0,1,0,0,0,0,0,0,1,0,0,0,1,1,1,0,1,0,0,0,0,0,0,0,0,1,51.220126,-102.457297
624,624,750,"88 Betts Ave, Yorkton, SK S3N 1M3, Canada",1,1.0,0,1,1,1,0,400,0,0,0,0,1,0,0,0,0,0,0,0,0,0,1,1,0,0,1,0,0,0,0,1,0,0,51.212175,-102.464135
625,625,950,"Weyburn, SK, Canada, S4H 2V2",1,1.0,0,1,1,1,0,632,1,1,0,0,0,0,1,0,0,0,0,0,1,1,1,0,1,0,0,0,1,0,0,0,1,0,49.662902,-103.854311
626,626,1100,"Regina, SK S4N3H2, Canada",2,1.0,0,0,0,1,1,576,0,0,0,1,0,0,0,0,1,0,0,0,0,0,1,0,1,0,0,0,0,0,0,0,0,1,50.451827,-104.586441
627,627,1450,"12 Lyons St, Regina, SK S4T 6G1, Canada",3,3.0,0,0,0,2,1,1300,0,1,0,0,0,0,0,1,0,0,0,0,0,1,1,0,1,0,0,0,0,0,0,0,0,1,50.4642984,-104.668768
628,628,1195,"35 Alport Crescent, Regina, SK S4R 7X2, Canada",2,1.0,0,1,1,1,0,700,1,1,0,0,0,0,1,0,0,0,0,0,0,0,1,1,0,0,0,0,0,0,1,0,1,1,50.4954645,-104.599458
629,629,1650,"55 Harbour Landing Dr, Regina, SK S4W 0B8, Canada",3,1.5,0,0,0,2,0,1140,0,1,0,0,0,0,0,0,0,1,0,0,1,1,1,0,1,0,0,0,0,0,0,0,0,1,50.4340146,-104.6650159
630,630,2100,"2101 Heseltine Rd, Regina, SK S4V, Canada",2,2.0,1,1,1,2,0,964,1,0,0,0,0,0,1,0,0,0,1,1,1,1,1,0,1,0,1,1,1,1,1,0,1,0,50.443846,-104.54337
631,631,995,"2920 Victoria Ave, Regina, SK S4T 1K7, Canada",2,1.0,0,1,1,1,0,600,0,1,0,0,1,0,0,0,0,0,0,0,1,0,1,1,0,0,0,0,0,0,0,1,1,0,50.447244,-104.623229
632,632,1000,", S0C0B0, Alida, SK, Canada",3,1.5,0,0,1,3,0,1200,0,0,0,0,0,0,0,0,1,0,0,0,0,0,1,1,0,0,0,0,0,0,0,0,0,1,49.313317,-101.709676
633,633,2000,"2328 Halifax St, Regina, SK S4P 1V4, Canada",1,1.0,1,1,1,0,0,500,0,0,0,0,1,0,0,0,0,0,0,0,1,0,1,1,0,0,0,0,0,0,0,0,0,1,50.442322,-104.603414
634,634,700,"Box 1468, S0A0X0, Esterhazy, SK, Canada",4,2.0,1,1,1,2,0,1172,1,1,0,0,0,0,0,0,1,0,1,0,0,1,1,1,0,0,0,0,0,0,0,0,0,1,50.687428,-102.017606
635,635,1495,"5200 Parliament Ave, Regina, SK S4W 0R5, Canada",2,2.0,1,1,1,1,0,800,0,1,0,1,0,0,1,0,0,0,0,0,0,1,1,0,1,1,1,1,0,1,1,1,1,0,50.44065,-104.649629
636,636,1675,"S4T1G7, Canada",3,2.5,0,0,0,2,0,1000,0,1,0,0,0,0,0,0,0,1,0,0,1,1,1,1,1,0,0,0,0,0,0,0,1,1,50.451314,-104.628482
637,637,800,"709 Beckwell Ave, Radville, SK S0C 2G0, Canada",2,1.0,1,1,1,3,0,800,1,0,0,0,0,0,0,0,1,0,0,0,1,0,1,0,1,0,0,0,0,0,0,0,0,1,49.438755,-104.202276
638,638,994,"Rae St, S4S3A2, REGINA, SK",2,1.0,0,1,1,1,1,720,0,1,0,0,1,0,0,0,0,0,0,0,1,0,1,1,0,0,0,0,0,0,0,1,0,0,50.417045,-104.621031
639,639,650,"S3N0k4, Canada",1,1.0,1,1,1,0,0,500,0,0,0,0,1,0,0,0,0,0,0,0,0,0,0,1,0,0,1,0,0,0,0,1,0,0,51.21123,-102.460717
640,640,700,"1031 Argyle St, Regina, SK S4T 3R4, Canada",2,1.0,0,0,0,0,1,800,0,0,1,0,0,0,0,0,1,0,0,0,0,0,0,0,1,0,0,0,0,0,0,0,0,1,50.462848,-104.632637
641,641,1285,"3928 Green Falls Drive, Regina, SK, S4V 3M1",2,1.0,0,1,1,0,1,840,0,1,0,0,1,0,0,0,0,0,0,0,0,1,1,0,1,0,0,0,1,1,1,0,1,0,50.431637,-104.550761
642,642,940,"331  Broad Street North, Regina, SK, S4R 2X8",1,1.0,0,1,1,0,1,659,0,1,0,0,1,0,0,0,0,0,0,0,1,0,1,1,0,0,0,0,0,0,0,0,1,0,50.4809322,-104.6064483
643,643,1300,"331  Broad Street North, Regina, SK, S4R 2X8",2,2.0,0,1,1,0,1,832,0,1,0,0,1,0,0,0,0,0,0,0,1,0,1,1,0,0,0,0,0,0,0,0,1,0,50.4809322,-104.6064483
644,644,1022,"22-41 Munroe Pl., Regina, SK, S4S 6A7",2,1.0,0,1,1,0,1,860,0,0,1,0,1,0,0,0,0,0,0,1,1,0,1,1,0,1,0,0,0,0,0,1,1,0,50.414254,-104.599335
645,645,933,"22-41 Munroe Pl., Regina, SK, S4S 6A7",2,1.0,0,1,1,1,1,860,0,1,1,0,1,0,0,0,0,0,0,1,1,0,1,1,0,1,0,0,0,0,0,1,1,0,50.414254,-104.599335
646,646,650,"Oxbow, Canada",1,1.0,1,1,1,1,0,500,1,0,0,0,1,0,0,0,0,0,0,0,1,0,1,1,0,0,1,0,0,0,0,1,0,1,49.2298181,-102.173666
647,647,1000,"S4A 0L7, Canada",3,2.0,0,0,0,3,1,1000,0,1,0,0,0,0,0,0,1,0,0,0,1,1,1,1,1,0,0,0,0,0,0,0,0,1,49.137061,-102.992336
648,648,960,"433 Osler St, Regina, SK S4R 1V8, Canada",3,1.0,0,0,1,2,0,1000,0,1,0,0,0,0,0,0,1,0,0,0,1,0,1,0,1,0,0,0,0,0,0,0,0,1,50.472292,-104.604872
649,649,1000,"2155 Winnipeg St, Regina, SK S4P 1G9, Canada",1,1.0,1,1,1,1,0,600,1,0,0,0,0,1,0,0,0,0,1,0,0,0,1,0,1,0,0,0,0,0,0,0,0,1,50.445425,-104.59505
650,650,1600,"1914 Hamilton St, Regina, SK S4P 3N6, Canada",1,1.0,1,1,1,1,1,882,1,1,0,1,0,0,1,0,0,0,0,0,0,1,1,0,1,1,1,1,1,1,0,1,0,0,50.4487677,-104.6093955
651,651,1000,"angus road, Canada",1,1.0,1,1,1,1,0,696,0,1,0,0,1,0,0,0,0,0,1,0,1,1,1,1,0,0,0,0,0,0,0,1,0,0,50.478071,-104.6203968
652,652,900,"3935 Robinson Street, S4S 3C8, Regina, SK",2,1.0,0,1,1,1,0,575,0,0,1,0,1,0,0,0,0,0,0,0,0,0,0,1,0,0,0,0,0,0,0,0,0,0,50.417032,-104.623899
653,653,550,"1901 14 Ave, Regina, SK S4P 0X4, Canada",1,1.0,1,1,1,1,0,300,0,0,0,0,1,0,0,0,0,0,0,0,1,0,1,1,0,0,1,0,0,0,0,1,0,1,50.443903,-104.608689
654,654,700,"1106 McIntosh St, Regina, SK S4T 5B9, Canada",1,1.0,0,1,1,1,0,500,0,0,0,0,1,0,0,0,0,0,0,0,0,0,1,1,0,0,0,0,0,0,0,0,0,0,50.4594315,-104.6524885
657,657,1200,", regina s4t 5a7 SK, Canada",2,1.0,1,1,1,1,0,700,0,0,0,0,0,0,0,0,1,0,0,0,0,0,0,0,1,0,0,0,0,0,0,0,1,0,50.4521561,-104.650754
658,658,800,", Calder S3N 2X3 SK, Canada",2,1.5,0,0,0,2,0,800,0,1,0,0,0,0,0,0,1,0,0,0,1,1,1,0,1,0,0,0,0,0,0,0,0,1,51.15498,-102.287113
659,659,800,"1021 4 Ave, Esterhazy, SK S0A 0X0, Canada",2,1.0,0,1,1,1,0,950,0,1,0,0,1,0,0,0,0,0,0,0,0,0,0,1,0,0,0,0,0,0,0,0,1,0,50.687428,-102.017606
660,660,2200,"2363 Broad St, Regina, SK S4P 1B9, Canada",3,2.0,0,1,1,1,0,2500,0,0,0,1,1,0,0,0,0,0,0,0,1,1,1,0,0,0,0,0,0,0,0,0,0,0,50.440899,-104.605644
661,661,750,"Logan Crescent., S3N 0W3, Yorkton, SK",1,1.0,1,1,1,1,0,500,1,0,0,0,0,1,0,0,0,0,1,1,0,0,1,1,0,0,0,0,0,0,0,0,0,0,51.201433,-102.464797
662,662,950,", Regina S4T 5K6 SK, Canada",1,1.0,1,1,1,0,0,750,0,1,0,0,0,1,0,0,0,0,1,0,1,1,1,1,0,0,0,0,0,0,0,0,0,1,50.467579,-104.661673
663,663,950,"311 Tremaine Ave, Regina, SK S4R 6T9, Canada",1,1.0,0,1,1,1,1,900,0,1,0,0,0,0,0,0,1,0,0,0,1,0,1,1,1,0,0,0,0,0,0,0,1,1,50.492067,-104.6606825
664,664,2000,", Regina S4n3g9  SK, Canada",5,4.0,0,0,0,2,0,2100,0,1,0,0,0,0,0,0,1,0,0,0,1,0,1,1,0,0,0,0,0,0,0,0,0,1,50.447008,-104.586466
665,665,1750,"5402 Mitchinson Way, Regina, SK S4W 0E7, Canada",3,2.0,0,0,0,1,0,1100,0,1,0,1,0,0,0,0,0,1,0,0,1,1,1,0,1,0,0,0,0,0,0,0,0,1,50.4480094909668,-104.595176696777
666,666,900,"3859 Robinson St, Regina, SK S4S 3C5, Canada",2,1.0,0,1,1,1,0,1000,0,0,0,0,1,0,0,0,0,0,0,0,1,0,0,1,0,0,0,0,0,0,0,0,0,0,50.418622,-104.623915
668,668,1275,"5500 Mitchinson Way, Regina, SK S4W 0N9, Canada",2,1.0,1,0,1,0,1,770,0,0,0,0,0,0,1,0,0,0,0,0,1,1,1,0,1,0,0,0,0,0,0,0,1,0,50.436949,-104.649662
669,669,950,"8 Dolphin Bay, Regina, SK S4S 2L9, Canada",2,1.0,1,1,1,2,0,950,0,1,0,1,0,1,0,0,0,0,0,0,1,0,1,0,1,0,0,0,0,0,0,0,0,1,50.405489,-104.611608
670,670,875,"2125 Lorne St, Regina, SK S4P 3K3, Canada",1,1.0,0,1,1,0,0,750,0,0,0,0,1,0,0,0,0,0,0,0,1,0,0,0,1,0,0,0,0,0,0,0,0,0,50.44478,-104.61354
671,671,950,"200 blk Ottawa Street, Regina S4R1N5 SK",1,1.0,1,1,1,1,0,900,0,0,0,0,0,1,0,0,0,0,0,0,0,0,0,1,0,0,0,0,0,0,0,0,0,1,50.475234,-104.60051
672,672,790,"310 Independent St, Yorkton, SK S3N 0T1, Canada",2,1.0,0,1,1,1,0,700,0,0,0,0,1,0,0,0,0,0,0,0,1,0,1,1,0,0,0,0,0,0,0,1,0,0,51.20643,-102.480688
673,673,1100,"125 Froom Crescent, Regina, SK S4N 1S8, Canada",2,1.0,0,1,1,1,0,1000,1,1,0,0,0,0,1,0,0,0,0,0,1,1,1,1,0,0,1,0,0,0,0,1,0,0,50.445507,-104.568106
674,674,1095,", S4r2l7, Regina, SK",2,1.0,0,1,1,2,0,1000,0,1,0,0,1,0,0,0,0,0,0,0,1,1,1,0,1,0,0,0,0,0,0,0,0,1,50.475381,-104.616629
675,675,895,"309 Belfast St, North Portal, SK S0C 1W0, Canada",2,1.0,0,0,1,3,1,1300,0,0,0,1,0,0,0,0,1,0,0,0,0,1,1,0,1,0,0,0,0,0,0,0,0,1,49.054186,-102.358432
676,676,1750,"Trinity Way, Regina, SK S0G 4G0, Canada",2,2.0,0,0,0,2,1,1400,0,1,0,0,0,0,1,0,0,0,0,0,1,1,1,0,1,0,0,0,1,0,0,0,1,0,50.38449,-104.503376
677,677,900,", stoughton S0G 4T0 SK, Canada",3,2.0,0,0,0,2,0,1216,0,0,0,0,0,0,0,0,1,0,0,0,1,1,1,0,1,0,0,0,0,0,0,0,0,1,49.718585,-103.349047
